,Address,Year,Flats,Entrance,Height,Square,Latitude,Longitude,city
33433,"кузнечный пер., 14б литер ж",1857,18,1,4,1453.11,59.927491,30.354891,spb
47604,"ул. тамбовская, 39 литер а",1900,13,1,5,703.8,59.910839,30.352456,spb
39676,"котельникова аллея, 1 литер а",1986,98,1,16,4978.4,60.012381,30.293644,spb
28055,"анадырский проезд, 27",1961,80,4,5,3404.0,55.866566,37.686913,moscow
31684,"пр-кт славы, 30 корпус 3 литер а",1965,90,6,5,4006.9,59.860062,30.384877,spb
30493,"ул. братская, 23 корпус 1",1968,215,6,9,10747.4,55.75017,37.794756,moscow
26288,"пр-кт балаклавский, 24 корпус 3",1964,72,1,9,2588.9,55.644089,37.59798,moscow
26181,"ул. криворожская, 29 корпус 3",1974,122,1,14,3649.5,55.670128,37.607233,moscow
27125,"ул. 4-я гражданская, 37 корпус 2",1959,60,3,5,2498.8,55.808513,37.717312,moscow
46284,"пр-кт орлово-денисовский, 19 корпус 1 строение 1",2020,586,7,12,26922.1,60.056912,30.267997,spb
29139,"ул. братеевская, 10 корпус 1",1996,388,6,17,21422.2,55.632626,37.760719,moscow
11291,"ул. левобережная, 4 корпус 10",2014,144,1,25,8077.4,55.869602,37.480579,moscow
15366,"ул. профсоюзная, 132 корпус 4",1972,143,3,12,7227.4,55.63067,37.510287,moscow
25886,"потаповский пер., 8/12 строение 4",1917,2,1,3,293.0,55.760378,37.640991,moscow
34655,"канала грибоедова наб., 170 литер б",1811,30,2,5,1929.62,59.918259,30.283897,spb
46989,"ул. маркина, 16а литер а",2005,34,2,7,2968.3,59.957219,30.305061,spb
3115,"пр-кт буденного, 47а",1960,60,3,5,2506.0,55.76208,37.737336,moscow
6611,"ул. нагорная, 2 корпус 2",1971,98,1,14,4196.0,55.682879,37.610566,moscow
14045,"большой симоновский пер., 11",1971,143,3,12,7208.0,55.728591,37.67431,moscow
42008,"пр-кт шуваловский, 51 корпус 2 литер а",2002,120,3,11,6522.2,60.028011,30.231831,spb
13838,"ул. 10-я парковая, 3",2010,183,2,22,15679.1,55.794381,37.801871,moscow
14781,"пр-кт мира, 124 корпус 20",1959,78,1,8,2135.0,55.814603,37.64109,moscow
35548,"ш. южное, 58 литер а",1961,48,3,4,1991.6,59.863513,30.415545,spb
41888,"пр-кт измайловский, 7 литер а",1897,93,8,4,5889.22,59.916451,30.305825,spb
10325,"ул. 3-я институтская, 1",1958,48,4,4,2567.4,55.719957,37.781039,moscow
14976,"1-й люберецкий проезд, 9б строение 3",1961,16,2,2,634.0,55.693617,37.857728,moscow
12121,"ул. 2-я мелитопольская, 21 корпус 3",1997,193,5,14,13692.0,55.539732,37.581271,moscow
8162,"большой толмачевский пер., 4",1907,19,2,5,1761.9,55.740887,37.623537,moscow
13368,"ул. аэродромная, 15",1963,80,4,5,3542.0,55.848882,37.431918,moscow
5098,"измайловский б-р, 20",1949,51,3,5,3019.71,55.796096,37.791046,moscow
46667,"ул. 1-я красноармейская, 16 литер а",1893,36,5,5,2608.84,59.915833,30.312463,spb
38764,"пр-кт большевиков, 9 корпус 1 литер щ",1975,223,6,9,9865.34,59.915048,30.473747,spb
46417,"реки мойки наб., 11 литер а",1993,23,6,6,1952.0,59.942629,30.324564,spb
1939,"ул. свободы, 93 корпус 1",1970,570,12,12,26888.4,55.867753,37.44285,moscow
49375,"ул. привокзальная, 18",1954,25,1,2,552.96,55.813733,48.898706,kazan
37517,"ул. благодатная, 40 литер а",1951,5,3,5,3931.89,59.876391,30.333816,spb
49625,"ул. азата аббасова, 8",2018,457,13,10,21760.0,55.793713,49.246147,kazan
18120,"ш. открытое, 25 корпус 16",1968,80,1,12,3505.0,55.828187,37.761743,moscow
39021,"пр-кт константиновский, 23 литер а",2011,73,4,7,13469.1,59.973455,30.267772,spb
7531,"ул. изумрудная, 52",1985,90,1,16,4976.0,55.879202,37.695295,moscow
41734,"ул. летчика пилютова, 36 литер а",1972,143,2,12,6574.0,59.836124,30.140616,spb
9445,"ул. фабричная, 4 корпус 2",1935,4,1,2,283.7,55.853208,37.391574,moscow
35374,"пр-кт ленинский, 116 литер а",1958,87,8,5,5407.9,59.852335,30.247794,spb
38083,"ул. краснопутиловская, 23 литер а",1961,58,3,5,2409.54,59.869905,30.268105,spb
33365,"ул. тверская, 10 литер а",1917,17,5,7,1930.07,59.947104,30.381876,spb
6451,"3-й новомихалковский проезд, 7а",1960,80,4,5,3426.1,55.838799,37.54056,moscow
9174,"ул. новопесчаная, 26",1953,141,5,8,10244.2,55.793505,37.50584,moscow
46246,"ул. полярников, 6 литер а",2008,120,3,11,7332.54,59.876549,30.43785,spb
45712,"шкиперский проток, 5 литер а",1956,29,5,9,8882.2,59.934263,30.242566,spb
38096,"ул. карпинского, 28 корпус 5 литер а",1965,100,5,5,4477.77,60.010443,30.422292,spb
32357,"ул. ключевая, 31 литер а",1962,80,4,5,3593.32,59.97328,30.410479,spb
47444,"ул. шателена, 2 корпус 2 литер р",1965,80,4,5,3398.72,60.001073,30.363919,spb
22368,"ул. земляной вал, 61 корпус 1",1902,32,4,4,1804.0,55.748655,37.656478,moscow
347,"загорского проезд, 7 корпус 2",1984,82,1,15,4651.0,55.719338,37.443344,moscow
15128,"ул. ельнинская, 12 корпус 1",1962,114,1,9,2583.1,55.737137,37.429034,moscow
13320,"ул. чусовская, 11 корпус 7",1964,120,6,5,5126.0,55.815392,37.809345,moscow
34276,"пр-кт стачек, 17 литер а",1952,96,7,5,6562.29,59.89362,30.27433,spb
44525,"ул. летчика пилютова, 50 корпус 1 литер а",2006,118,3,10,6375.3,59.827478,30.140786,spb
40381,"пр-кт рижский, 32 литер а",1917,49,2,4,1606.1,59.913438,30.286951,spb
26932,"ул. 2-я синичкина, 26",1972,96,1,12,3642.0,55.760975,37.715848,moscow
30788,"ул. вертолетчиков, 4 корпус 8",2019,320,5,17,14146.3,55.703266,37.947838,moscow
43028,"ул. дыбенко, 12 корпус 1 литер з",1976,295,8,9,15957.95,59.902876,30.464171,spb
34954,"ул. псковская, 16 литер а",1906,18,1,5,921.35,59.919892,30.281687,spb
35070,"ш. выборгское, 15 литер а",2012,834,9,29,51811.9,60.05295,30.311862,spb
19992,"п. десеновское, ул. дмитрия рябинкина, 11",1939,12,3,2,713.3,55.503492,37.33207,moscow
38086,"пр-кт маршала блюхера, 12 литер ад",1958,4,1,1,142.8,59.982343,30.376028,spb
7863,"старослободский пер., 4",1959,56,4,5,3261.7,55.79057,37.668148,moscow
23086,"аптекарский пер., 8/2",1976,107,1,14,5163.4,55.767924,37.676466,moscow
48527,"ул. рихарда зорге, 53",1974,144,4,9,4704.3,55.752627,49.207061,kazan
9554,"пр-кт волгоградский, 104 корпус 1",2008,136,2,18,11099.9,55.703682,37.774427,moscow
23542,"ул. кунцевская, 15",1956,36,3,5,2867.9,55.730431,37.415892,moscow
9194,"ул. матвеевская, 28 корпус 1",1972,136,4,9,7631.0,55.704783,37.465335,moscow
39310,"2-я в.о. линия, 3 литер а",1893,34,2,4,2149.38,59.939081,30.290563,spb
28801,"134а самаркандский бульвар кв-л, корпус 2",1997,164,3,16,10507.4,55.704575,37.827751,moscow
16378,"задонский проезд, 32 корпус 2",1996,416,3,17,10498.7,55.620931,37.759803,moscow
557,"куркинское, 17 корпус 9",2005,21,1,5,1580.4,55.88459,37.393362,moscow
25312,"ш. каширское, 4 корпус 3",1960,143,5,8,8717.4,55.668275,37.625774,moscow
5450,"ул. стромынка, 14 корпус 2",1961,60,3,5,2508.2,55.792807,37.692411,moscow
17261,"ул. зеленоградская, 25а",1974,98,1,14,4227.0,55.874082,37.495303,moscow
3153,"воротниковский пер., 11 строение 1",1917,25,1,5,1682.0,55.770416,37.601286,moscow
27420,"ул. верхняя масловка, 28",2009,116,1,19,10862.4,55.799168,37.559263,moscow
41988,"дор. муринская, 51 корпус 1 строение 1",2018,253,1,25,10606.7,60.031216,30.460371,spb
16364,"ул. новорязанская, 32",1963,64,2,9,2933.8,55.771418,37.668435,moscow
48275,"ул. осиновская, 31",1987,16,3,2,884.6,55.855553,48.888824,kazan
46669,"ул. черняховского, 46 литер а",1881,15,2,4,1625.8,59.921155,30.358322,spb
17605,"ул. 1-я мелитопольская, 4",1992,111,1,16,5294.0,55.539966,37.577139,moscow
3195,"ш. дмитровское, 41 корпус 2",1974,143,3,12,7217.4,55.83248,37.568713,moscow
11066,"ул. авиаторов, 18",1987,128,2,17,7048.0,55.644689,37.400099,moscow
39699,"пр-кт каменноостровский, 59 литер а",1908,42,7,7,6609.7,59.972447,30.30605,spb
10237,"отрадный проезд, 3",2007,66,1,12,3722.0,55.854208,37.607466,moscow
29872,"ул. сормовская, 17 корпус 5",1983,111,1,16,5296.0,55.704656,37.810872,moscow
48376,"ул. гудованцева, 41",1975,80,4,5,2413.0,55.873051,49.019403,kazan
37157,"ул. караваевская, 47 корпус 2 литер а",1956,12,2,2,736.0,59.82775,30.518375,spb
37119,"пр-кт обуховской обороны, 147 литер б",1917,10,1,4,781.0,59.884144,30.443447,spb
22790,"ул. чистова, 16 корпус 6",2014,120,1,16,7991.5,55.694642,37.74631,moscow
7587,"ул. люблинская, 17 корпус 2",1959,42,3,5,2393.0,55.704068,37.733132,moscow
19802,"кадомцева проезд, 21",1966,84,1,12,3613.0,55.827019,37.667384,moscow
47883,"ул. малыгина, 4 литер а",1909,6,1,3,353.03,59.951362,30.413946,spb
5452,"капельский пер., 3",1967,81,1,12,3650.0,55.784552,37.630526,moscow
35635,"ул. грота, 1-3 литер в",1934,33,4,6,2965.03,59.972604,30.292413,spb
31252,"нагатинская наб., 16 корпус 3",1976,86,1,14,3950.9,55.68057,37.651511,moscow
1293,"пр-кт университетский, 5",1957,496,14,14,37580.6,55.695824,37.551367,moscow
20869,"ул. образцова, 24",1970,141,4,9,7171.0,55.789603,37.610772,moscow
14876,"пятницкое, 45",1992,599,9,17,38282.0,55.85771,37.349264,moscow
39692,"ш. суздальское, 26 корпус 2 строение 1",2016,223,1,26,12837.0,60.058349,30.272228,spb
42185,"ул. костюшко, 30 литер а",1964,71,7,5,3169.03,59.846902,30.302295,spb
1608,"ш. дмитровское, 165е корпус 7",2009,284,4,22,14696.0,55.926585,37.544944,moscow
42132,"ул. рузовская, 3 литер а",1850,17,2,6,1537.7,59.918219,30.326495,spb
21626,"ул. советской армии, 15",1926,31,2,6,2650.0,55.791086,37.615937,moscow
47675,"реки фонтанки наб., 127 литер а",1840,82,9,8,9173.17,59.919725,30.307065,spb
4962,"ул. верхняя масловка, 27 корпус 1",1961,83,3,8,5550.0,55.79804,37.557736,moscow
35476,"пр-кт металлистов, 126 литер а",1960,60,3,5,2544.64,59.973478,30.387347,spb
43059,"ул. шотмана, 8 корпус 1 литер а",1969,134,9,5,6379.47,59.901567,30.477143,spb
46938,"ул. будапештская, 38 корпус 5 литер а",1973,167,1,14,4642.2,59.862397,30.380196,spb
45565,"пр-кт старо-петергофский, 35 литер а",1917,21,4,2,1477.86,59.903846,30.277429,spb
7332,"валдайский проезд, 7",1963,96,3,8,4018.3,55.868086,37.465658,moscow
35600,"пр-кт славы, 20 литер а",1965,134,9,5,6031.8,59.85829,30.382056,spb
4645,"ул. короленко, 8",1997,73,1,20,8816.4,55.795034,37.691728,moscow
20483,"пятницкое, 11",1991,529,8,17,34191.0,55.840866,37.383894,moscow
26096,"ул. изюмская, 22",2002,374,11,12,19885.0,55.552581,37.558364,moscow
20666,"ул. солнечногорская, 14 корпус 2",1983,111,1,16,5243.9,55.85864,37.519135,moscow
25274,"ул. зои и александра космодемьянских, 9 корпус 2",1963,32,2,5,1263.0,55.821421,37.510754,moscow
18752,"ул. донбасская, 6",1973,287,8,9,14113.0,55.594214,37.659892,moscow
21401,"ул. крылатская, 29 корпус 2",1986,326,5,17,17803.0,55.770056,37.410879,moscow
9748,"3-й дорожный проезд, 8 корпус 2",1972,185,4,12,9246.3,55.60072,37.617168,moscow
46350,"морская наб., 45 литер а",1979,328,4,16,17460.3,59.958291,30.23475,spb
24826,"ш. ленинградское, 261 строение 1",1960,28,2,2,627.3,55.794285,37.545626,moscow
2233,"ш. варшавское, 143 корпус 1",1979,127,2,16,8043.9,55.58322,37.599597,moscow
23767,"ул. 1-я новокузьминская, 10 корпус 2",1970,112,1,14,5436.0,55.715084,37.783904,moscow
47757,"пр-кт светлановский, 115 корпус 2 литер а",1971,250,7,9,12887.43,60.04304,30.404056,spb
43676,"пр-кт дачный, 25 корпус 3 литер а",1961,32,2,4,1266.3,59.837793,30.25922,spb
13901,"ул. беговая, 15",1950,84,4,6,5399.0,55.781722,37.557331,moscow
6533,"стратонавтов, 17",1962,60,3,5,2514.3,55.827585,37.42792,moscow
21434,"ул. сходненская, 23",1962,67,4,5,2867.0,55.844399,37.4387,moscow
40066,"новаторов б-р, 31 литер а",1962,70,7,5,3176.7,59.848113,30.266209,spb
3764,"ферганский проезд, 3 корпус 2",1969,287,8,9,9682.0,55.696504,37.825523,moscow
18746,"ул. красного маяка, 20 корпус 2",1977,168,3,12,9308.6,55.615731,37.581137,moscow
29365,"ул. васильевская, 9",1959,96,3,8,5554.0,55.771829,37.586383,moscow
4048,"береговой, 5а корпус 5",2017,144,1,25,7292.4,55.755348,37.510879,moscow
11456,"ул. юных ленинцев, 97 корпус 2",1960,80,4,5,3498.8,55.699111,37.779395,moscow
42594,"ул. гагаринская, 20 литер б",1860,4,1,4,676.0,59.944684,30.343914,spb
47403,"ул. захарьевская, 21 литер а",1898,9,3,4,2902.01,59.947545,30.356876,spb
11003,"ул. флотская, 68 корпус 2",2021,396,2,24,8752.1,55.856184,37.509586,moscow
45731,"ул. краснопутиловская, 57 литер а",1960,52,5,5,2435.2,59.866703,30.274168,spb
16099,"ул. болотниковская, 46 корпус 3",1965,80,4,5,3517.4,55.664654,37.585745,moscow
47548,"ул. весельная, 4 литер а",1905,141,3,6,6459.57,59.928677,30.244731,spb
20762,"ул. вересаева, 10",2000,92,1,16,6205.0,55.719156,37.444629,moscow
38755,"пр-кт ветеранов, 71 корпус 3 литер а",1968,45,1,9,1967.32,59.83919,30.228776,spb
3638,"ул. 9-я соколиной горы, 1",1964,68,1,9,2453.0,55.771064,37.729431,moscow
32521,"ул. крупской, 51 литер а",1962,60,3,5,2571.91,59.888207,30.417953,spb
45780,"ул. галерная, 44 литер а",1899,19,2,5,1295.63,59.93043,30.288047,spb
26396,"ул. толбухина, 5 корпус 3",1958,60,4,5,3196.0,55.719009,37.399596,moscow
20861,"ул. годовикова, 12 корпус 2",1962,60,3,5,2586.0,55.80744,37.632493,moscow
3040,"ул. южнобутовская, 29 корпус 1",2000,210,4,12,9448.5,55.538499,37.538467,moscow
11682,"ул. ангарская, 28 корпус 2",2001,132,3,12,7441.0,55.877688,37.521686,moscow
5722,"п. десеновское, ул. дмитрия рябинкина, 9 корпус 1",1939,12,3,2,689.2,55.504236,37.332214,moscow
28817,"страстной б-р, 4 строение 5",1899,13,3,5,1759.0,55.765037,37.60779,moscow
32305,"ул. александра матросова, 3 строение 1",2021,871,23,11,47383.2,59.978196,30.335164,spb
6315,"ул. инессы арманд, 3",1980,375,6,16,19370.0,55.592953,37.548276,moscow
47554,"ул. савушкина, 23 литер а",1948,8,1,3,619.4,59.985282,30.284535,spb
25997,"пр-кт зеленый, 39 корпус 2",1962,80,4,5,3436.8,55.753787,37.795151,moscow
33784,"черной речки наб., 49 литер а",1899,40,3,5,2997.5,59.985795,30.305232,spb
9876,"2-й южнопортовый проезд, 15",1990,174,2,22,11269.4,55.700197,37.684677,moscow
25752,"пр-кт севастопольский, 1 корпус 2",1956,20,2,5,1773.8,55.693358,37.611194,moscow
41662,"обводного канала наб., 122 литер а",1917,10,4,6,2139.6,59.908047,30.297507,spb
178,"ш. ленинградское, 38 корпус 1",1958,33,3,4,1865.9,55.83114,37.489257,moscow
24067,"ул. покровская, 23",2013,320,5,17,19194.0,55.702318,37.928174,moscow
15648,"ул. беломорская, 22",2015,130,2,17,8942.8,55.862904,37.474902,moscow
7473,"ул. хабаровская, 19 корпус 3",1970,144,4,9,7207.9,55.825386,37.821535,moscow
14072,"пр-кт буденного, 30/8",1956,246,5,9,10718.0,55.762105,37.734704,moscow
39758,"ул. брюсовская, 11 литер а",1968,100,5,5,4489.77,59.988005,30.419004,spb
23622,"2-й верхний михайловский проезд, 4",1968,163,5,9,7193.1,55.709652,37.603613,moscow
36140,"ул. ковалевская, 29 литер а",1957,8,2,2,447.2,59.978021,30.515896,spb
6764,"пр-кт севастопольский, 71",1964,78,4,5,3443.7,55.658297,37.574696,moscow
20863,"ул. гиляровского, 10 строение 3",1915,16,1,4,771.0,55.776745,37.631137,moscow
5490,"ул. 26-ти бакинских комиссаров, 12 корпус 4",1970,98,1,14,4252.0,55.662405,37.489518,moscow
40929,"ул. беринга, 24 корпус 3 литер в",1962,98,5,5,4197.28,59.941939,30.238119,spb
39978,"пр-кт лиговский, 110 литер в",1898,11,1,3,623.6,59.918728,30.355214,spb
19878,"ул. нагатинская, 4 корпус 3",2020,82,1,15,5134.1,55.680184,37.632961,moscow
13066,"ул. профсоюзная, 88/20",1969,320,10,9,15656.0,55.650043,37.529897,moscow
37457,"ул. ткачей, 4 корпус 2 литер а",2005,99,2,13,4547.4,59.894175,30.435443,spb
3010,"ул. южнобутовская, 56",2000,158,4,10,9185.0,55.537149,37.529322,moscow
28525,"ул. гамалеи, 19 корпус 1",1973,214,2,12,8754.0,55.801232,37.455346,moscow
49653,"ул. хороводная, 39",1970,98,6,5,4422.2,55.782749,49.15875,kazan
40847,"пр-кт юрия гагарина, 28 корпус 4 литер а",1968,84,1,12,4212.1,59.854571,30.344785,spb
5799,"п. сосенское, ул. александры монаховой, 99",2015,160,3,17,11179.9,55.54103,37.491476,moscow
23924,"пр-кт ленинский, 105 корпус 2",2016,128,4,12,11260.8,55.663517,37.516476,moscow
864,"ул. беловежская, 39 корпус 7",2006,104,2,14,4774.0,55.710793,37.3955,moscow
26707,"ш. дмитровское, 21 корпус 1",1960,78,4,5,3323.9,55.822407,37.571749,moscow
37958,"пр-кт королева, 69",2016,506,5,21,18045.2,60.034677,30.239682,spb
37928,"ул. гаванская, 33 литер а",1968,137,5,7,6435.33,59.93433,30.239305,spb
31534,"ул. федосеенко, 33 литер а",1961,60,3,5,2571.87,59.975464,30.398082,spb
4831,"маршала рокоссовского б-р, 28/14",1964,79,3,5,2486.0,55.815686,37.718318,moscow
45596,"ул. белы куна, 26 корпус 2 литер а",1968,70,6,9,3165.56,59.877737,30.393078,spb
38799,"ул. софьи ковалевской, 11 корпус 3 литер а",1965,100,5,5,4554.52,60.014392,30.416417,spb
37004,"пр-кт стачек, 16 литер а",1951,142,17,7,17145.0,59.896319,30.278813,spb
9296,"ул. алябьева, 1",1961,80,4,5,3535.0,55.74185,37.4872,moscow
6885,"ул. хабаровская, 19 корпус 1",1970,143,4,9,7156.5,55.825082,37.824113,moscow
49298,"ул. бутлерова, 20",1998,22,2,4,3989.0,55.786966,49.13145,kazan
750,"ул. первомайская, 64",1964,68,1,9,7901.4,55.792842,37.796184,moscow
24531,"ш. ярославское, 4 корпус 4",1972,98,1,14,4212.0,55.851055,37.681056,moscow
26513,"ул. онежская, 18",1973,192,6,9,9553.7,55.850651,37.520563,moscow
7678,"пр-кт вернадского, 65",2014,168,1,23,10138.0,55.671123,37.502902,moscow
30366,"ул. верхняя первомайская, 27",1960,80,4,5,3383.0,55.79936,37.786959,moscow
9946,"ул. твардовского, 4 корпус 1",2005,202,2,15,12035.9,55.797969,37.39099,moscow
44114,"ул. беринга, 26 корпус 1 литер а",1962,80,4,5,3459.72,59.942904,30.238568,spb
47002,"пр-кт московский, 72 литер в",1951,28,3,5,1866.4,59.906499,30.318985,spb
15096,"1-й войковский проезд, 16а",1950,12,2,2,582.0,55.816318,37.489149,moscow
10561,"ул. трофимова, 28 корпус 3",1969,78,1,13,3733.8,55.701283,37.681389,moscow
43138,"ул. радищева, 42 литер б",1860,4,2,4,176.3,59.942719,30.362805,spb
38046,"ул. бестужевская, 57 литер а",1963,100,5,5,4487.7,59.977742,30.427466,spb
7562,"ул. алабяна, 12 корпус 3",1952,49,3,7,3843.4,55.799497,37.502381,moscow
19056,"п. внуковское, ул. бориса пастернака, 27 корпус 2",2017,264,4,19,13642.2,55.635747,37.316529,moscow
16249,"1-й сетуньский, 12",1972,91,1,14,3963.0,55.732742,37.539545,moscow
13417,"ул. 1-я пугачевская, 8",1917,11,1,3,545.1,55.7947,37.730832,moscow
35252,"пр-кт стачек, 101 корпус 1 литер д",1976,143,3,12,7396.31,59.857459,30.245368,spb
43476,"ул. боровая, 23/21 литер л",1866,20,2,6,1347.34,59.918805,30.345126,spb
5679,"брюсов пер., 2/14 строение 3",1912,29,1,8,3499.7,55.757926,37.606927,moscow
35970,"пр-кт маршака, 20 строение 1",2017,162,1,1,7806.6,60.028402,30.452421,spb
21839,"романов пер., 3 строение 6",1900,32,3,5,5058.0,55.753894,37.607421,moscow
15624,"ул. артамонова, 10",1967,80,4,5,3405.6,55.719622,37.456765,moscow
797,"востряковский проезд, 21 корпус 1",1973,189,4,12,9467.5,55.575541,37.652211,moscow
12863,"ул. бестужевых, 8а",1975,287,8,9,14010.0,55.867975,37.601537,moscow
44285,"пр-кт большой в.о., 58/17 литер а",1958,65,3,7,4396.78,59.933839,30.266389,spb
26432,"сеченовский пер., 7",1907,15,2,5,1773.0,55.741029,37.595312,moscow
28081,"ул. дорожная, 24 корпус 3",1971,357,10,9,17494.3,55.599443,37.612443,moscow
12341,"ул. керченская, 16",1963,120,6,5,5182.8,55.652695,37.579376,moscow
10414,"ул. ботаническая, 10а",1958,41,3,5,2751.0,55.845274,37.586877,moscow
8734,"ул. гришина, 15",1967,79,1,12,3376.0,55.722979,37.416646,moscow
24406,"ул. академика королева, 20",1961,80,4,5,3520.0,55.82269,37.600522,moscow
30269,"ул. 2-я пугачевская, 10 корпус 1",1970,191,6,9,6330.0,55.793429,37.728721,moscow
5167,"ул. ереванская, 17 корпус 1",1966,80,4,5,3534.0,55.630812,37.674732,moscow
43501,"пр-кт большой в.о., 22 литер а",1894,25,4,4,1923.04,59.938531,30.282487,spb
40405,"пр-кт владимирский, 1/47 литер а",1909,22,11,5,3592.45,59.932175,30.346321,spb
43248,"ул. 9-я советская, 23 литер а",1990,24,1,5,1118.2,59.936846,30.376172,spb
11583,"п. новофедоровское, ул. вышгородская, 11 корпус 1",2017,15,1,3,838.7,55.497159,36.914677,moscow
32297,"пирогова пер., 10 литер а",1883,17,2,6,1388.61,59.928929,30.303175,spb
11773,"ш. хорошевское, 56",1983,136,2,17,8653.6,55.778487,37.53367,moscow
8387,"ул. донецкая, 19",1980,373,8,12,17069.0,55.648717,37.716091,moscow
15244,"крутицкая наб., 17",1962,72,1,9,2582.2,55.721311,37.659676,moscow
44134,"ул. некрасова, 40 литер а",1883,41,8,8,9844.5,59.938888,30.361404,spb
23383,"ул. стартовая, 37",1976,111,1,16,6928.0,55.885655,37.688926,moscow
18145,"ш. каширское, 59 корпус 2",1988,261,3,22,16359.9,55.637932,37.699274,moscow
8300,"ул. никулинская, 6 корпус 2",2002,216,1,25,14318.8,55.667127,37.463457,moscow
9572,"ул. люблинская, 124",1991,474,7,17,26102.4,55.644897,37.741423,moscow
7306,"ул. живописная, 34 корпус 4",1964,60,3,5,2468.6,55.793667,37.457259,moscow
10227,"ул. академика павлова, 8 корпус 1",1964,160,4,5,3411.5,55.740421,37.39709,moscow
16488,"ул. 1-я курьяновская, 6б",1961,48,3,4,2001.5,55.656976,37.705535,moscow
49994,"ул. горьковское шоссе, 14",1962,80,4,5,3237.5,55.826245,49.038358,kazan
7174,"ш. варшавское, 141 корпус 11",2016,352,5,12,18136.8,55.588415,37.601798,moscow
37573,"обводного канала наб., 127 литер а",1904,42,3,8,3456.3,59.910325,30.320899,spb
48067,"реки пряжки наб., 40 литер в",1884,13,1,4,288.62,59.921705,30.279774,spb
48067,"реки пряжки наб., 40 литер в",1884,13,1,4,288.62,59.921705,30.279774,spb
41456,"ул. малая бухарестская, 3 литер а",1982,323,5,12,18070.8,59.849862,30.410892,spb
3295,"1-й новоподмосковный пер., 4",1954,111,4,9,7221.0,55.817416,37.503379,moscow
39255,"ул. руставели, 20 литер а",1967,159,8,5,7258.0,60.006957,30.429227,spb
46027,"ш. пулковское, 22 литер а",1972,84,1,14,4452.8,59.827098,30.326199,spb
13829,"ул. шипиловская, 39 корпус 3",1979,168,3,12,9364.9,55.623864,37.736222,moscow
34190,"ул. гаванская, 12 литер а",1911,15,1,5,744.77,59.930525,30.240598,spb
4314,"3-й дорожный проезд, 10 корпус 2",1972,191,4,12,9609.9,55.600211,37.62024,moscow
11359,"путевой проезд, 40 корпус 3",1982,112,1,15,5464.0,55.878551,37.573986,moscow
42553,"27-я в.о. линия, 10 литер а",1897,27,1,5,1122.51,59.930327,30.257567,spb
13700,"пр-кт солнцевский, 5 корпус 1",1977,213,6,9,10405.0,55.650333,37.399488,moscow
47473,"ул. лени голикова, 70 литер а",1966,70,7,5,3182.9,59.838277,30.243841,spb
16505,"ул. лазо, 8 корпус 1",1960,70,4,5,2992.4,55.744054,37.771319,moscow
38036,"ул. долгоозерная, 1 литер а",1991,511,13,10,29186.3,60.012332,30.236026,spb
33735,"ул. садовая, 29 литер а",1798,21,3,5,1794.4,59.929037,30.322641,spb
11262,"ул. гурьянова, 57 корпус 2",1990,338,5,17,18668.2,55.679554,37.718112,moscow
24091,"хохловский пер., 18 строение 1",1900,9,2,4,532.8,55.757207,37.645456,moscow
36073,"пр-кт энгельса, 17 литер а",1955,63,4,5,4035.84,60.000983,30.330744,spb
10592,"ул. вавилова, 20",1960,60,3,5,2539.8,55.703525,37.581289,moscow
43636,"горелово, ш. красносельское, 56 корпус 3 литер а",2012,432,4,16,28521.7,59.795433,30.156211,spb
42067,"3-я в.о. линия, 38 литер а",1917,35,6,3,2344.6,59.945369,30.282397,spb
26034,"ул. введенского, 7",1968,98,5,5,4379.0,55.644323,37.543407,moscow
10938,"ул. адмирала лазарева, 29",2003,238,4,16,15214.0,55.545645,37.528253,moscow
22183,"ул. плеханова, 27 корпус 2",1965,80,4,5,3517.8,55.743046,37.769468,moscow
5191,"ул. академика скрябина, 28 корпус 2",1968,144,4,9,4780.4,55.705102,37.792016,moscow
27681,"ул. планерная, 3 корпус 1",1973,160,2,9,5085.3,55.860009,37.432663,moscow
20250,"ул. нагатинская, 28",1957,41,3,5,3404.2,55.677418,37.657134,moscow
17742,"2-й павелецкий проезд, 6",1966,72,1,9,2549.4,55.713182,37.642087,moscow
32660,"ул. руставели, 56 литер а",1986,101,3,10,4814.7,60.033854,30.430601,spb
48398,"ул. рихарда зорге, 1",1970,230,4,9,11140.2,55.763604,49.179285,kazan
28005,"ул. старый гай, 4 корпус 1",1976,98,1,14,2694.0,55.741521,37.82997,moscow
27444,"измайловский б-р, 9",1956,48,3,5,2924.9,55.797726,37.786644,moscow
11395,"ул. люблинская, 5 корпус 7",1969,144,4,9,7196.4,55.71622,37.732898,moscow
48125,"ул. латышских стрелков, 4",1969,90,6,5,3817.1,55.763153,49.173716,kazan
45483,"ул. большая посадская, 12 литер а",2015,223,10,9,17115.8,59.959197,30.32504,spb
5796,"ул. артамонова, 7 корпус 1",1967,48,3,5,1997.2,55.718704,37.458768,moscow
25794,"ул. черкизовская б., 26 корпус 5",1964,70,1,14,2340.6,55.796243,37.737938,moscow
19016,"ул. островитянова, 16 корпус 2",1973,143,3,12,7263.0,55.635741,37.510592,moscow
40131,"пр-кт большевиков, 67 корпус 4 литер г",1963,60,4,5,2727.05,59.879936,30.478858,spb
17006,"ул. фридриха энгельса, 43-45",1974,108,3,9,4833.4,55.775788,37.688063,moscow
34163,"пр-кт загородный, 22 литер б",1874,27,1,5,2822.6,59.925407,30.342341,spb
22395,"ул. егора абакумова, 2",1969,130,3,5,2806.0,55.878511,37.717726,moscow
15036,"ул. шатурская, 10",1966,84,1,12,3608.0,55.729174,37.765893,moscow
47922,"ш. фермское, 20 корпус 1 литер а",2013,271,1,16,17685.5,60.014185,30.311394,spb
8738,"кленовый б-р, 10 корпус 2",1967,143,4,9,6928.9,55.682351,37.671947,moscow
7251,"сеченовский пер., 9",1870,14,2,5,743.9,55.741237,37.5948,moscow
39825,"ул. шевченко, 4 литер а",1954,36,2,5,2112.58,59.929682,30.245943,spb
25066,"ул. чугунные ворота, 21 корпус 4",1975,140,4,9,4665.0,55.693688,37.806506,moscow
39805,"ул. туристская, 30 корпус 1 литер а",2011,904,10,18,36683.9,60.005036,30.21028,spb
24684,"ул. машкова, 16",1911,21,1,6,2617.0,55.763812,37.652382,moscow
31903,"ул. типанова, 9 литер а",1960,60,3,5,2552.3,59.853437,30.331193,spb
42728,"пр-кт северный, 89 корпус 1 литер а",1966,426,7,9,16657.01,60.016406,30.426037,spb
28029,"пр-кт балаклавский, 42",1965,84,1,12,3645.0,55.64759,37.575091,moscow
46263,"пр-кт клинский, 23 литер а",1917,11,1,5,636.0,59.914529,30.320719,spb
21532,"5-й подбельского проезд, 4а корпус 2",1957,50,3,5,3540.0,55.816359,37.73253,moscow
23385,"пр-кт нахимовский, 67 корпус 1",1961,63,1,8,2173.9,55.680179,37.556909,moscow
26964,"ул. дубнинская, 29 корпус 1",2002,399,7,17,22685.8,55.864596,37.565245,moscow
28570,"ул. веерная, 2",2004,176,1,23,11802.4,55.712888,37.489446,moscow
3414,"ул. байкальская, 23",1972,150,3,14,9444.4,55.817451,37.800865,moscow
40907,"ул. большая подьяческая, 14 литер б",1917,2,1,3,107.8,59.924984,30.306382,spb
41112,"пр-кт шаумяна, 52/1 литер а",1965,45,1,9,1971.8,59.925074,30.42451,spb
38666,"пр-кт космонавтов, 48 корпус 3 литер а",1964,139,7,5,5048.9,59.850143,30.357227,spb
27791,"ул. барышиха, 27",1998,135,2,17,10260.0,55.846143,37.345607,moscow
14364,"ул. святоозерская, 21",2004,253,6,12,12312.8,55.712878,37.896948,moscow
35296,"ул. руставели, 8 литер а",1968,45,1,9,1977.1,59.999885,30.43573,spb
4450,"ул. амундсена, 6 строение 1",1971,98,1,14,4234.0,55.851652,37.658365,moscow
5904,"ул. маршала соколовского, 10 корпус 1",2001,118,1,20,16074.3,55.79348,37.487029,moscow
11948,"ул. газопровод, 6г корпус 3",1936,8,2,2,529.0,55.585698,37.608041,moscow
35413,"пр-кт малоохтинский, 38 литер а",1960,60,3,5,2535.2,59.934515,30.403696,spb
29095,"пр-кт ленинградский, 44",1937,106,9,6,9447.0,55.794725,37.546794,moscow
15915,"серебрянический пер., 9",1860,48,2,10,3215.0,55.750479,37.647738,moscow
30818,"ул. адмирала лазарева, 50 корпус 2",2000,143,3,12,6703.0,55.543796,37.519593,moscow
37561,"пр-кт рыбацкий, 13 литер а",1989,118,2,12,7287.1,59.842662,30.491183,spb
37457,"ул. ткачей, 4 корпус 2 литер а",2005,99,2,13,4547.4,59.894175,30.435443,spb
6211,"ул. василисы кожиной, 8 корпус 3",1970,108,3,9,4588.0,55.737198,37.50072,moscow
30770,"ул. ереванская, 4 корпус 1",1964,60,3,5,2580.0,55.630843,37.669163,moscow
36602,"ул. кавалергардская, 21 литер а",1937,60,6,5,4592.7,59.949848,30.383314,spb
16482,"5-й капотня кв-л, 3",1980,111,1,16,5314.1,55.628683,37.79499,moscow
11696,"ул. татарская, 7 строение 1",1962,92,5,5,4145.1,55.733655,37.638835,moscow
19943,"кронштадтский б-р, 15 корпус 2",1968,96,1,12,3624.6,55.843085,37.494449,moscow
25975,"батайский проезд, 13",1980,283,8,9,13932.0,55.644089,37.716288,moscow
7609,"ул. верхняя, 14",1970,72,1,9,2805.0,55.778234,37.575298,moscow
4088,"ул. зацепский вал, 2 строение 2",1963,68,1,9,2455.6,55.733528,37.640533,moscow
33403,"пр-кт народного ополчения, 181 литер а",1968,139,7,5,6858.94,59.825977,30.214439,spb
28169,"ул. соловьиная роща, 9 корпус 1",2003,748,4,7,6949.0,55.894939,37.396335,moscow
40407,"ул. бухарестская, 35 корпус 2 литер а",1965,90,6,5,4009.43,59.863012,30.38564,spb
2957,"ул. калибровская, 24а",1960,60,3,5,2484.0,55.810486,37.619162,moscow
39406,"пр-кт бакунина, 11 литер в",1856,16,1,4,1385.29,59.930128,30.378346,spb
2220,"ш. дмитровское, 155 корпус 1",1969,160,5,9,7067.0,55.897518,37.542222,moscow
39597,"пр-кт лиговский, 158 литер а",1906,11,1,5,956.9,59.912368,30.349375,spb
9476,"ул. верхние поля, 18",1999,148,4,14,10578.0,55.664218,37.747217,moscow
39920,"ул. весельная, 7/10 литер а",1910,104,6,5,4769.76,59.930173,30.244739,spb
10386,"яна райниса б-р, 11",1964,80,4,5,3404.0,55.849165,37.434262,moscow
34097,"ул. коммуны, 51 корпус 2 литер а",1958,24,2,3,1138.3,59.960638,30.49183,spb
41647,"пр-кт шуваловский, 63 корпус 2 литер а",1996,169,4,11,8988.4,60.023601,30.222713,spb
15228,"даев пер., 8",1997,28,2,9,2687.9,55.770157,37.635997,moscow
20788,"ул. толбухина, 5 корпус 1",1955,78,4,5,5457.0,55.7191,37.401033,moscow
39550,"джамбула пер., 5 литер а",1890,16,3,3,929.0,59.925913,30.333349,spb
11849,"ул. окская, 38",1963,159,8,5,7022.0,55.715281,37.772649,moscow
24827,"ул. тихомирова, 19 корпус 1",2012,145,2,22,10204.0,55.885948,37.654466,moscow
5209,"ул. обручева, 20",1967,111,1,16,6056.0,55.658032,37.514607,moscow
3415,"ул. бойцовая, 18 корпус 13",1960,60,3,5,2590.0,55.812808,37.727535,moscow
37400,"пр-кт московский, 37/1 литер а",1907,58,5,6,3551.56,59.913501,30.317916,spb
24429,"ул. маршала конева, 8 корпус 2",1956,49,3,5,3463.4,55.798707,37.489257,moscow
4522,"генерала карбышева б-р, 15 корпус 2",1976,98,1,14,4247.8,55.782096,37.467715,moscow
30693,"ул. лестева, 16",1930,40,4,5,3070.4,55.715063,37.6122,moscow
34761,"пр-кт стачек, 13 литер а",1929,79,8,5,5151.88,59.895195,30.274078,spb
23313,"ул. строителей, 6 корпус 7",1953,66,3,8,5099.7,55.68837,37.537362,moscow
7014,"ул. жуковского, 7",1915,12,1,6,1945.1,55.76331,37.645986,moscow
15990,"ул. габричевского, 3 корпус 1",1962,80,4,5,3395.9,55.812798,37.45566,moscow
6359,"ул. астрадамская, 7б",1964,100,5,5,4471.7,55.811675,37.5622,moscow
5556,"ш. каширское, 70 корпус 1",1952,30,3,4,1579.4,55.643277,37.67652,moscow
1189,"ул. пырьева, 18",1966,84,1,12,3655.0,55.728687,37.525962,moscow
13767,"ул. марии ульяновой, 6",1959,128,4,8,9041.0,55.680316,37.527265,moscow
15025,"ул. плющева, 15",2000,110,2,14,6841.5,55.740765,37.761878,moscow
30750,"ул. фомичевой, 8",1980,110,1,16,5226.5,55.858089,37.444548,moscow
34848,"ул. рыбацкая, 3 литер а",1913,20,3,7,1503.6,59.958525,30.297731,spb
37485,"обводного канала наб., 203 литер ч",1917,10,1,3,229.9,59.910587,30.282532,spb
30939,"пр-кт вернадского, 94 корпус 2",2006,220,1,33,25187.9,55.652796,37.474192,moscow
39869,"пр-кт тихорецкий, 20 корпус 2 литер а",1961,60,3,5,2527.99,60.016249,30.365949,spb
1760,"большой головин пер., 13 строение 2",1890,8,1,4,686.6,55.76954,37.628514,moscow
21779,"ул. академика бочвара, 10а",1960,70,5,5,3742.8,55.803261,37.454268,moscow
19289,"ул. симоновский вал, 18",1962,112,4,8,4889.3,55.72161,37.662901,moscow
2522,"ул. адмирала руднева, 8",2003,151,7,9,9747.0,55.542207,37.527507,moscow
12024,"ул. дубнинская, 32 корпус 8",2004,78,1,16,4364.5,55.883298,37.560934,moscow
16959,"тихорецкий б-р, 12 корпус 1",1978,109,1,16,5230.0,55.677697,37.774454,moscow
41572,"ул. жуковского, 6 литер а",1858,84,4,6,6133.0,59.936165,30.351352,spb
45779,"ул. бухарестская, 33 корпус 5 литер а",1968,216,6,9,11197.61,59.864363,30.381436,spb
1788,"ул. 2-я напрудная, 15",1971,98,1,14,4247.0,55.878602,37.688288,moscow
35110,"ул. савушкина, 139 литер а",1999,219,3,17,11201.1,59.988829,30.207531,spb
22631,"гоголевский б-р, 8",1931,45,1,8,1660.0,55.746243,37.600711,moscow
15383,"казарменный пер., 8 строение 2",1915,72,4,6,5096.5,55.7559,37.650918,moscow
45913,"ш. выборгское, 5 корпус 1 литер д",2001,106,2,10,9899.2,60.039625,30.319327,spb
42709,"ул. галерная, 44 литер б",1899,28,4,5,2257.69,59.931129,30.287347,spb
14095,"ш. можайское, 17",1982,181,3,16,11480.0,55.720205,37.43145,moscow
3388,"пр-кт севастопольский, 3 корпус 3",1957,20,2,5,1764.3,55.692876,37.610754,moscow
35080,"ул. малая морская, 16 литер а",1857,33,6,5,4576.71,59.934538,30.310649,spb
15032,"ул. 2-я филевская, 8 корпус 1",2012,100,1,16,4276.0,55.736949,37.494198,moscow
29564,"ул. руставели, 17а",1958,39,2,5,1530.0,55.815099,37.597675,moscow
49848,"ул. 2-я азинская, 1",2001,84,1,15,5922.2,55.804334,49.20592,kazan
41331,"ул. серпуховская, 17 литер а",1989,32,2,5,1721.9,59.915544,30.32274,spb
2604,"пр-кт ленинградский, 69 строение 1",1940,148,11,9,12903.1,55.802811,37.517716,moscow
1550,"ул. митинская, 40 корпус 1",1993,336,4,22,20762.8,55.847993,37.361517,moscow
49991,"ул. мира, 21",1961,36,3,3,1495.0,55.865323,49.226896,kazan
3833,"ш. варшавское, 142 корпус 1",1981,377,6,16,20607.3,55.607972,37.606074,moscow
5120,"конаковский проезд, 12 корпус 1",1984,560,4,14,12664.7,55.848938,37.481118,moscow
10694,"ореховый проезд, 39 корпус 2",1976,286,6,12,16402.0,55.617561,37.734129,moscow
10378,"отрадный проезд, 6",1959,54,3,5,2284.0,55.8553,37.609676,moscow
14807,"ермолаевский пер., 19",1911,8,2,5,966.6,55.765762,37.592168,moscow
48361,"ул. патриса лумумбы, 47",1953,39,1,2,973.2,55.794143,49.185627,kazan
41040,"пр-кт загородный, 9 литер а",1879,67,1,5,9041.71,59.926999,30.344102,spb
42105,"пр-кт рижский, 35 литер а",1917,73,7,4,1798.96,59.913469,30.277043,spb
48918,"ул. 2-я юго-западная, 39",2015,253,1,25,7840.4,55.821563,49.079572,kazan
18178,"1-й павелецкий проезд, 1/42 корпус 1",1957,50,3,5,3360.6,55.718532,37.644459,moscow
27529,"ул. металлургов, 29",1984,124,4,9,6211.9,55.759729,37.79225,moscow
22227,"ул. фестивальная, 63 корпус 2",1993,172,6,14,10492.3,55.861333,37.500234,moscow
36634,"песочная наб., 12 литер а",2005,78,3,14,13086.0,59.97359,30.295072,spb
24595,"ул. петра романова, 10",1962,60,3,5,2530.9,55.706624,37.682215,moscow
23331,"жемчуговой аллея, 3 корпус 1",1973,144,4,9,4990.2,55.73297,37.821652,moscow
36938,"ш. фермское, 16 литер а",2013,224,1,17,11084.2,60.013632,30.312679,spb
39427,"нестерова пер., 3 литер а",1903,8,1,4,564.5,59.95279,30.296896,spb
19798,"ул. введенского, 5 корпус 1",1968,60,1,5,1738.0,55.644846,37.544198,moscow
27382,"ул. шверника, 9 корпус 5",1965,62,1,9,2720.8,55.69382,37.586967,moscow
45875,"14-я в.о. линия, 31-33 литер а",1911,73,7,6,7125.6,59.938811,30.270557,spb
24916,"ул. старокачаловская, 16",1998,66,3,9,6590.7,55.57007,37.587883,moscow
40443,"ул. седова, 106 литер м",1963,48,1,8,1704.4,59.86921,30.442081,spb
35397,"ул. белы куна, 5 литер а",1967,228,4,9,11045.67,59.871007,30.383008,spb
41589,"ул. кирочная, 62 строение 1",2017,70,2,10,6603.3,59.941114,30.384419,spb
49221,"ул. фатыха амирхана, 8а",1979,143,4,9,7769.7,55.830083,49.136292,kazan
47769,"ул. рузовская, 33 литер а",1877,15,2,4,1447.0,59.914295,30.33078,spb
24704,"ул. попутная, 5",1973,81,1,12,3482.0,55.654493,37.384963,moscow
39313,"ул. замшина, 31 литер а",1971,392,7,9,14832.8,59.981402,30.408287,spb
5840,"ш. варшавское, 128 корпус 1",1989,464,7,17,25580.0,55.623295,37.613746,moscow
20587,"ул. керченская, 1 корпус 1",1973,97,1,14,4168.7,55.651953,37.58058,moscow
47184,"морская наб., 21 корпус 1 литер а",2006,46,1,9,5892.5,59.953606,30.211879,spb
21508,"ул. миллионная, 15 корпус 3",1926,60,3,5,3795.0,55.817122,37.700747,moscow
14495,"ул. кастанаевская, 13",2000,61,1,16,8299.0,55.738201,37.492015,moscow
6218,"ул. фестивальная, 15 корпус 3",1964,99,3,9,4368.7,55.859064,37.47421,moscow
31855,"реки фонтанки наб., 45 литер а",1852,39,4,4,2852.32,59.930372,30.338874,spb
1509,"ул. спиридоновка, 12",1969,46,1,12,4259.0,55.759871,37.594405,moscow
31942,"ул. омская, 4 литер а",1960,60,3,5,2515.4,59.992353,30.318195,spb
22620,"ул. малая калитниковская, 1",1975,68,1,12,3610.0,55.737659,37.676053,moscow
16746,"ул. дубравная, 44",1999,168,2,22,11005.0,55.841923,37.352174,moscow
34944,"пр-кт солидарности, 21 литер а",1971,215,6,9,11579.69,59.915183,30.495549,spb
39574,"ул. академика лебедева, 4 корпус 3 литер б",1893,5,1,2,449.11,59.956174,30.349393,spb
35614,"ул. боровая, 26-28 литер а",1888,136,11,6,11654.68,59.919396,30.34721,spb
48618,"ул. аметьевская магистраль, 18 корпус 1",2019,335,1,26,19373.2,55.766293,49.170841,kazan
30779,"ш. варшавское, 74 корпус 2",1959,84,3,8,5812.0,55.655427,37.618794,moscow
3836,"самаркандский б-р, 9 корпус 4",1969,100,5,5,2910.0,55.699604,37.825137,moscow
32719,"ул. 5-я советская, 43 литер а",1887,13,2,3,617.2,59.932707,30.374708,spb
36960,"ул. лазо, 4 корпус 1 литер а",1959,27,2,3,1369.4,59.956575,30.485057,spb
28881,"ул. суздальская, 36 корпус 1",1987,110,2,14,5028.8,55.744733,37.86946,moscow
12543,"ул. уральская, 11",1969,173,2,12,6986.9,55.817588,37.797442,moscow
1273,"ул. крылатские холмы, 32 корпус 3",1988,203,3,17,10985.0,55.765848,37.411346,moscow
45057,"ковенский пер., 13 литер б",1880,6,1,3,474.0,59.936828,30.358269,spb
31786,"пр-кт гражданский, 107 корпус 2 литер а",1970,90,6,5,4330.08,60.027283,30.415357,spb
7875,"ул. шаболовка, 27",1959,61,1,8,2557.6,55.721797,37.611482,moscow
48199,"ул. даурская, 36",1962,16,2,2,631.9,55.764561,49.173428,kazan
19296,"карамышевская, 18 корпус 1",1962,68,1,9,2434.8,55.769778,37.480427,moscow
47281,"ул. наличная, 36 корпус 7 литер а",1971,305,7,10,18931.1,59.947279,30.219712,spb
38686,"ул. писарева, 5 литер а",1899,9,2,7,1329.74,59.925502,30.285559,spb
7075,"лазоревый проезд, 24",1973,111,1,16,5548.0,55.854401,37.638889,moscow
46810,"пр-кт энергетиков, 28 корпус 6 литер а",1964,100,5,5,4520.83,59.955773,30.43211,spb
41405,"ул. лени голикова, 74 литер а",1967,45,1,9,1997.92,59.83853,30.245925,spb
40605,"пр-кт гражданский, 75 корпус 4 литер а",1968,105,7,5,3795.3,60.015444,30.404819,spb
45429,"ул. костюшко, 88 литер а",1965,71,7,5,3174.96,59.84258,30.31037,spb
16366,"ул. грекова, 4",1969,279,8,9,13123.0,55.885161,37.662308,moscow
6044,"ул. ставропольская, 7б",1960,80,4,5,3251.9,55.681265,37.742789,moscow
48307,"ул. меридианная, 2",2008,186,4,24,21069.5,55.81737,49.116628,kazan
7660,"ул. южнопортовая, 18",1951,95,8,5,5946.4,55.706218,37.684712,moscow
34780,"дор. кушелевская, 3 корпус 4 литер а",2014,180,3,13,9286.8,59.987326,30.369758,spb
48566,"дорожный (малые клыки) пер., 6",1993,86,3,5,2941.8,55.800554,49.213008,kazan
3190,"ул. трофимова, 6",1961,123,4,8,7009.3,55.702871,37.664186,moscow
39897,"пр-кт среднеохтинский, 57 литер а",1972,97,1,15,4640.42,59.960652,30.415518,spb
23069,"ул. профсоюзная, 101 корпус 1",1971,98,1,14,2679.0,55.635879,37.524462,moscow
7196,"ул. большая академическая, 77 корпус 4",1968,80,1,12,3442.8,55.845067,37.554681,moscow
25090,"ул. 5-я парковая, 18",1983,68,1,12,3431.5,55.791592,37.788926,moscow
5201,"1-й вешняковский проезд, 8",1964,76,4,5,3231.4,55.722984,37.79172,moscow
22086,"ш. дмитровское, 105 корпус 4",1966,84,1,12,3632.0,55.876324,37.542958,moscow
20820,"пр-кт волгоградский, 109 корпус 5",1962,80,4,5,3534.0,55.70776,37.760117,moscow
4537,"ул. нарвская, 5",1967,80,4,5,3526.0,55.83249,37.506011,moscow
45093,"альпийский пер., 19 корпус 1 литер а",1965,87,6,5,4015.0,59.852095,30.378472,spb
36388,"пр-кт загородный, 15 литер а",1916,26,4,6,2809.14,59.925592,30.340653,spb
13785,"ш. аминьевское, 3",1998,127,1,16,5816.0,55.703165,37.455867,moscow
31485,"ул. маяковского, 7/27 литер а",1826,23,2,4,1923.0,59.935453,30.355169,spb
19179,"ул. штурвальная, 7 корпус 1",1963,64,4,5,2780.0,55.848362,37.445491,moscow
35580,"пр-кт художников, 33 корпус 1 литер а",1974,790,16,9,37627.91,60.045763,30.356068,spb
22876,"ш. шелепихинское, 3 строение 2",2007,84,1,9,2643.0,55.757192,37.523303,moscow
42739,"ул. гаванская, 22 литер а",1910,26,2,8,3573.4,59.933284,30.23917,spb
24819,"ул. ясеневая, 41 корпус 2",1977,143,4,9,4527.0,55.608058,37.741199,moscow
45806,"пр-кт металлистов, 66 литер а",1958,60,4,5,3728.69,59.95835,30.421914,spb
41486,"пр-кт стачек, 107 корпус 1 литер а",1976,358,10,9,18499.8,59.854287,30.238317,spb
9650,"ул. ходынская, 4",1969,71,1,9,3030.5,55.770573,37.562955,moscow
6076,"ул. изумрудная, 26",1961,80,4,5,3228.0,55.872627,37.686329,moscow
6767,"5-й донской проезд, 21 корпус 9",1959,40,2,5,1573.2,55.701607,37.593911,moscow
1951,"ул. бутырская, 6",1965,221,8,8,11838.0,55.795813,37.585017,moscow
5872,"ш. открытое, 19 корпус 5",1963,60,4,5,3547.0,55.825052,37.748681,moscow
22531,"ул. гризодубовой, 4 корпус 4",2006,272,7,18,32325.3,55.785711,37.521381,moscow
23093,"ул. красноярская, 5/36",1980,110,1,16,3235.6,55.819944,37.834012,moscow
13932,"ул. керченская, 1 корпус 2",1976,98,1,14,4206.7,55.651582,37.582305,moscow
10519,"ул. дорожная, 7 корпус 3",1973,502,14,9,24322.1,55.601666,37.624858,moscow
29328,"ул. вешних вод, 2 корпус 5",1994,271,4,17,17178.0,55.85529,37.700873,moscow
11431,"ул. 11-я парковая, 29",1982,111,1,16,5284.7,55.797579,37.804763,moscow
42946,"15-я в.о. линия, 66 литер г",1917,12,1,3,655.1,59.943553,30.263712,spb
5330,"ул. судакова, 25 корпус 3",2002,83,2,12,4441.8,55.674001,37.755033,moscow
41595,"ул. шевченко, 5/6 литер а",1900,48,1,4,869.04,59.930543,30.246356,spb
11878,"ул. матросова, 7 корпус 2",1960,60,4,5,3274.0,55.66406,37.419117,moscow
48616,"ул. джаудата файзи, 17",2001,108,3,10,6028.19,55.793283,49.222683,kazan
49587,"пр-кт ямашева, 78",1980,324,9,9,17389.3,55.827681,49.141287,kazan
17910,"ул. бехтерева, 51 корпус 2",1995,134,2,17,7395.4,55.615309,37.64825,moscow
48666,"ул. академика глушко, 33",2000,73,4,7,4286.8,55.786875,49.227794,kazan
5604,"ул. остафьевская, 8 корпус 1",2007,171,2,22,9955.0,55.531606,37.503882,moscow
34796,"обводного канала наб., 121 литер б",1929,52,7,4,3486.7,59.911209,30.32451,spb
25949,"пр-кт 60-летия октября, 5 корпус 1",1964,93,1,13,3409.9,55.705011,37.581289,moscow
31203,"пресненский пер., 6",1959,56,3,5,2327.0,55.760935,37.571686,moscow
25640,"ул. коптевская, 34 корпус 2",1961,60,3,5,2568.0,55.838713,37.525019,moscow
17417,"ул. космонавта волкова, 5 корпус 1",1955,207,5,13,15419.0,55.816379,37.507681,moscow
8349,"ул. зоологическая, 26 строение 2",1997,126,5,13,13337.7,55.767251,37.58252,moscow
45521,"ул. брянцева, 2 корпус 1 литер а",1970,372,7,9,10167.5,60.033872,30.401702,spb
14616,"ул. кетчерская, 8 корпус 3",1971,144,4,9,4935.9,55.74412,37.826116,moscow
45347,"ул. антонова-овсеенко, 23 корпус 2 литер н",1970,105,7,5,3746.91,59.909188,30.47611,spb
15186,"пр-кт нахимовский, 18",1962,72,1,9,2594.0,55.668792,37.592698,moscow
10773,"ул. изумрудная, 28 корпус 1",1960,98,5,5,3899.0,55.873733,37.686904,moscow
3126,"ул. свободы, 48",1989,175,1,22,10335.0,55.848892,37.455013,moscow
20255,"п. сосенское, скандинавский б-р, 4 корпус 1",2019,210,3,17,11269.4,55.567097,37.49665,moscow
40360,"пр-кт обуховской обороны, 107 литер в",1916,20,2,4,1292.26,59.894491,30.436763,spb
38602,"пр-кт заневский, 10 литер а",1953,38,3,5,2529.21,59.928695,30.408853,spb
37280,"пр-кт светлановский, 66 литер а",1976,236,6,10,12829.22,60.040393,30.398199,spb
48541,"ул. октябрьская, 21б",1978,86,1,5,2011.26,55.840674,49.090172,kazan
47917,"ул. 2-я комсомольская, 19 корпус 1 литер а",1954,24,4,3,1160.32,59.839773,30.143257,spb
23834,"ул. соколиной горы 5-я, 21 корпус 4",1965,100,5,5,4495.0,55.764921,37.739025,moscow
15730,"ул. печорская, 11",1983,240,4,16,12124.0,55.863757,37.665435,moscow
44358,"ул. прибрежная, 7 литер а",2003,180,4,10,9348.3,59.835754,30.506167,spb
23007,"строгинский б-р, 2 корпус 1",1996,151,2,22,9794.6,55.804936,37.394619,moscow
48194,"ул. фатыха амирхана, 26",1996,206,6,9,12505.0,55.839133,49.135627,kazan
18532,"ул. радужная, 14 корпус 2",1960,60,3,5,2477.8,55.860842,37.667231,moscow
31315,"ул. производственная, 4 корпус 2",2004,237,3,22,13713.0,55.648794,37.388188,moscow
47654,"ул. казанская, 52/24 литер а",1834,32,4,4,2493.0,59.92809,30.308771,spb
20344,"ул. маршала тухачевского, 38 корпус 1",1963,64,1,9,2354.2,55.785022,37.470788,moscow
44422,"реки фонтанки наб., 82/1 литер а",1879,36,4,5,3658.48,59.926436,30.332047,spb
46645,"ул. пугачева, 4 литер а",1950,3,2,3,2276.76,59.949974,30.417387,spb
16955,"ул. мещерякова, 2 корпус 2",1958,54,4,5,2794.8,55.833673,37.451456,moscow
11990,"ул. парковая 3-я, 8/19",1964,80,5,5,3278.51,55.79062,37.78439,moscow
2635,"2-й самотечный пер., 2/4",1962,72,1,9,2559.0,55.777823,37.616566,moscow
41853,"ул. промышленная, 36 литер з",1949,12,2,2,705.9,59.896454,30.259858,spb
10650,"ул. феодосийская, 7 корпус 6",2018,424,7,18,20611.3,55.559237,37.577822,moscow
30408,"ул. лобачевского, 76",1969,93,1,14,4053.0,55.67458,37.491188,moscow
29836,"ул. воронежская, 18",1977,71,2,9,2268.0,55.609919,37.733383,moscow
23200,"востряковский проезд, 21 корпус 3",1973,215,6,9,10470.4,55.576808,37.651699,moscow
38066,"ул. панфилова, 5б литер а",1950,10,1,2,586.6,59.951853,30.411188,spb
8163,"ул. 4-я гражданская, 39 корпус 1",1959,52,3,5,2138.6,55.80786,37.719082,moscow
26132,"ул. плещеева, 12",1987,120,2,16,6093.0,55.88608,37.611419,moscow
22191,"ул. академика анохина, 5 корпус 3",2002,338,5,17,19134.0,55.663004,37.475881,moscow
48308,"ул. урицкого, 10",1928,4,1,2,165.2,55.800919,49.057276,kazan
46377,"ул. профессора качалова, 4 литер б",1954,30,2,5,2019.38,59.916654,30.399995,spb
39718,"ул. пестеля, 13-15 литер а",1889,75,11,5,6222.0,59.94248,30.343788,spb
44735,"ул. декабристов, 11 литер а",1840,34,6,5,3057.58,59.928505,30.303992,spb
32878,"моравский пер., 3 корпус 2 литер а",2008,310,3,17,13515.8,59.836454,30.4208,spb
20525,"ул. бойцовая, 18 корпус 2",1962,60,3,5,2568.0,55.814148,37.72281,moscow
20188,"1-й капотня кв-л, 5",1959,40,4,4,2342.1,55.641448,37.788432,moscow
21076,"сиреневый б-р, 29 корпус 1",1963,72,1,9,2581.0,55.803428,37.797262,moscow
27456,"ул. братская, 27 корпус 1",1968,215,6,9,10691.7,55.750677,37.797819,moscow
18158,"дмитровский проезд, 16",1974,286,6,12,14568.6,55.808027,37.566647,moscow
27941,"курсовой пер., 15",1930,41,3,6,3095.0,55.740532,37.605607,moscow
26762,"ул. поварская, 29/36 строение 1",1931,60,3,3,3745.6,55.756341,37.588251,moscow
44349,"пр-кт малый п.с., 34 литер а",1958,77,8,5,4871.47,59.958075,30.292808,spb
33372,"ул. димитрова, 9 корпус 1 литер а",1982,140,2,13,7365.5,59.846775,30.383475,spb
18363,"матроса железняка б-р, 5",1952,3,3,5,3769.4,55.826938,37.52519,moscow
218,"ул. покровка, 44",1910,32,2,5,2490.7,55.762865,37.654071,moscow
27419,"ул. ефремова, 19 корпус 3",2015,43,3,7,10861.0,55.721255,37.570025,moscow
35822,"пр-кт большевиков, 79 корпус 3 литер и",1963,90,6,5,4117.12,59.8729,30.475858,spb
4210,"ул. утренняя, 14 корпус 2",1968,84,1,12,3643.0,55.746872,37.79437,moscow
47491,"ул. ленская, 15 литер а",1983,143,4,9,7650.9,59.940046,30.491677,spb
36510,"ул. софийская, 48 корпус 2 литер а",1966,139,7,5,6877.05,59.868582,30.414629,spb
3557,"ул. алексея дикого, 7 корпус 1",1968,96,1,12,3662.0,55.748017,37.811824,moscow
3149,"ул. сеславинская, 32",1964,144,4,9,6154.0,55.742017,37.489221,moscow
41479,"пр-кт народного ополчения, 223 корпус 2 литер а",1977,45,1,9,2404.2,59.825343,30.16514,spb
14098,"ул. чертановская, 64 корпус 2",1971,567,16,9,28939.5,55.599138,37.584137,moscow
34875,"ул. седова, 77/28 литер а",1957,78,4,5,4666.01,59.872602,30.43723,spb
23249,"путевой проезд, 36",1970,84,1,12,3592.1,55.876743,37.570573,moscow
18301,"тепличный пер., 5",1971,143,4,9,7163.6,55.790059,37.49506,moscow
22797,"ул. новокосинская, 14 корпус 2",1997,134,2,17,8556.0,55.73735,37.858321,moscow
21073,"4-й верхний михайловский проезд, 10 корпус 1",1971,68,1,9,2683.6,55.707634,37.602238,moscow
49688,"ул. хади такташа, 127",2013,76,1,18,4387.2,55.765691,49.136022,kazan
18800,"ул. земляной вал, 41 строение 1",1965,321,7,12,15526.0,55.753889,37.657305,moscow
14159,"ул. солянка, 1/2 строение 2",1914,197,10,6,15041.1,55.754046,37.639267,moscow
31086,"ул. черняховского, 9 корпус 1",1972,98,1,14,4222.0,55.804896,37.53429,moscow
2130,"ул. 13-я парковая, 27 корпус 2",1963,84,4,6,3636.0,55.805063,37.810557,moscow
46254,"ул. глинки, 6 литер а",1917,6,1,3,653.5,59.924424,30.298854,spb
7233,"новочеркасский б-р, 8",1980,215,6,9,10621.0,55.644653,37.714824,moscow
40645,"реки мойки наб., 92 литер а",1865,19,3,5,1482.7,59.929177,30.300291,spb
42296,"ул. белы куна, 22 корпус 4 литер а",1968,70,7,5,3186.46,59.876644,30.390276,spb
4822,"ул. алтайская, 25",1973,215,6,9,10357.8,55.821148,37.827922,moscow
12611,"симферопольский б-р, 24 корпус 6",2004,184,1,24,8379.6,55.648093,37.603774,moscow
26843,"ул. кременчугская, 38 корпус 2",1962,100,5,5,2997.9,55.714526,37.460313,moscow
46369,"пр-кт большой п.с., 10 литер а",1905,36,6,5,2723.9,59.953845,30.292242,spb
42165,"ул. 10-я красноармейская, 6 литер а",1917,15,1,4,959.2,59.912847,30.304567,spb
28940,"варсонофьевский пер., 8 строение 4",1917,8,2,4,958.1,55.762946,37.626403,moscow
27018,"1-й курьяновский проезд, 11",1953,4,1,2,236.2,55.655986,37.700056,moscow
19578,"керамический проезд, 49 корпус 3",1992,195,3,17,11144.4,55.874168,37.566189,moscow
33894,"ул. шелгунова, 8 литер б",1961,90,6,5,4095.65,59.866739,30.461395,spb
36512,"ул. миргородская, 14 литер б",1905,8,1,3,423.5,59.925764,30.372911,spb
5863,"ул. кржижановского, 23 корпус 5",1954,42,2,6,4456.7,55.679605,37.579583,moscow
12224,"ул. марии ульяновой, 21 корпус 2",1965,150,4,10,6298.2,55.680285,37.518991,moscow
19370,"ул. изумрудная, 9",1984,339,5,17,18571.0,55.871627,37.679601,moscow
13717,"ул. туристская, 3",1962,64,4,5,2736.0,55.845491,37.423851,moscow
10981,"ул. скульптора мухиной, 12 корпус 2",1991,222,4,14,10147.0,55.64069,37.340173,moscow
8918,"рубцовская наб., 2 корпус 3",1999,149,3,17,9813.9,55.773793,37.694845,moscow
34585,"ул. воскова, 15-17 литер а",1914,79,7,6,7399.2,59.957931,30.307684,spb
16404,"ул. фрязевская, 15 корпус 3",1971,97,1,14,4235.0,55.747394,37.827059,moscow
7361,"пр-кт севастопольский, 57",1964,80,4,5,3549.8,55.663999,37.580274,moscow
21345,"ул. митинская, 28",2015,408,5,25,28451.0,55.844925,37.367688,moscow
33925,"пр-кт вознесенский, 28 литер а",1840,14,3,5,1630.83,59.927387,30.308484,spb
8195,"багратионовский, 4",1967,72,1,9,2838.0,55.746512,37.512964,moscow
43097,"пр-кт лесной, 69 литер а",1994,100,3,10,5743.94,59.987398,30.341883,spb
31318,"ул. кулакова, 18 корпус 1",1985,174,1,22,10016.8,55.806616,37.393694,moscow
21405,"ул. профсоюзная, 53",1962,80,4,5,3556.6,55.664929,37.550351,moscow
39714,"пр-кт суздальский, 85 литер а",1974,97,1,14,4655.87,60.045754,30.407874,spb
8521,"ул. холмогорская, 2 корпус 2",1979,215,6,9,10582.0,55.881934,37.720349,moscow
30208,"туп. чуксин, 2",1963,80,4,5,3543.1,55.806924,37.559415,moscow
40338,"полтавский проезд, 2 литер а",2013,741,37,7,24833.7,59.926278,30.366839,spb
10916,"ул. куусинена, 6 корпус 1",1957,75,3,8,5119.0,55.782223,37.515641,moscow
47861,"17-я в.о. линия, 2/35 литер а",1756,29,4,4,2148.6,59.932635,30.273459,spb
48938,"ул. азата аббасова, 3",2019,378,11,11,19309.2,55.794295,49.247252,kazan
24946,"ул. радужная, 4 корпус 2",1959,57,3,5,2342.3,55.861282,37.671947,moscow
45287,"ул. пушкинская, 20 литер а",1875,39,1,5,6755.69,59.804993,30.384329,spb
23274,"ул. академика глушко, 14 корпус 1",1992,204,6,12,10747.5,55.565646,37.564123,moscow
15902,"ул. чичерина, 12/2",1992,328,5,17,18072.0,55.866026,37.650253,moscow
17794,"ул. краснодонская, 2 корпус 3",1989,203,3,17,11205.1,55.687259,37.751071,moscow
28138,"ул. байкальская, 33 корпус 2",1966,139,7,5,6048.1,55.818473,37.810207,moscow
29744,"ул. гарибальди, 24 корпус 3",1971,91,1,14,3940.0,55.671438,37.5486,moscow
5404,"ул. новочеремушкинская, 4 корпус 1",1957,60,3,5,4019.4,55.690187,37.58685,moscow
30666,"ул. вишневая, 4",1954,40,2,5,2618.6,55.827843,37.446955,moscow
12631,"сиреневый б-р, 11 корпус 1",1960,120,6,5,3538.2,55.803555,37.7782,moscow
1733,"ул. 1-я владимирская, 10",1958,1,3,5,4128.0,55.758504,37.774095,moscow
3618,"ул. вавилова, 91 корпус 1",1977,278,9,9,15626.0,55.677072,37.546192,moscow
46454,"ул. орджоникидзе, 22 литер а",1961,79,4,5,3376.2,59.844746,30.329055,spb
21336,"ул. усачева, 3",2004,289,6,5,5923.2,55.729524,37.575621,moscow
2453,"электролитный проезд, 16 корпус 2",2015,288,3,25,16774.0,55.67125,37.611024,moscow
44418,"пр-кт науки, 65 литер а",1965,100,5,5,4504.27,60.006458,30.42063,spb
25657,"ул. садовая-кудринская, 23 строение 4",1912,41,2,6,2956.0,55.766055,37.588323,moscow
24870,"ул. якорная, 5 корпус 2",1968,160,5,9,7008.8,55.686716,37.686347,moscow
40281,"16-я в.о. линия, 13/46 литер д",1905,1,1,1,45.4,59.935101,30.271437,spb
27424,"п. филимонковское, ул. генерала трошева, 20",2012,27,3,3,1565.4,55.56614,37.34276,moscow
40495,"пр-кт невский, 102 литер м",1899,10,2,5,1185.0,59.932973,30.35684,spb
35788,"реки фонтанки наб., 30 литер а",1798,23,5,5,1948.0,59.938766,30.343554,spb
26071,"ул. кантемировская, 11",1967,100,5,5,4468.0,55.635757,37.670816,moscow
44066,"пр-кт богатырский, 58 корпус 5 литер а",2007,106,2,11,6304.6,60.005198,30.205654,spb
29354,"ул. авиаконструктора миля, 4 корпус 1",1996,324,7,14,17826.0,55.686137,37.849832,moscow
4981,"крутицкая наб., 21",1962,71,1,9,2551.0,55.720154,37.659209,moscow
37265,"ул. марата, 34 литер в",1902,4,1,6,267.15,59.926012,30.3526,spb
17565,"ул. новозаводская, 25 корпус 3",1957,90,4,5,5026.0,55.752475,37.497935,moscow
46604,"пр-кт культуры, 21 корпус 4 литер а",1981,143,4,9,7877.39,60.046077,30.382209,spb
2061,"ул. вятская, 1",1966,160,5,9,6998.3,55.792933,37.582331,moscow
45279,"ул. боткинская, 4 литер а",1952,28,3,5,2117.79,59.957742,30.354055,spb
20458,"ул. шоссейная, 78",1954,38,4,4,2280.2,55.670036,37.719486,moscow
29611,"октябрьский пер., 5",2005,65,1,18,9124.2,55.786303,37.612623,moscow
32519,"ул. караваевская, 27 корпус 3 литер а",1963,40,2,5,1610.81,59.83025,30.509266,spb
18770,"тихвинский пер., 10-12 корпус 2",1929,18,3,4,948.0,55.787012,37.597827,moscow
6812,"ул. 1-я хуторская, 8 корпус 1",1961,80,4,5,3555.0,55.802953,37.571246,moscow
18312,"ул. южнобутовская, 50",2000,152,4,12,10211.0,55.538519,37.532709,moscow
1200,"ореховый б-р, 23 корпус 1",1975,144,4,9,7081.1,55.613504,37.725747,moscow
32261,"ш. фермское, 12 литер з",2014,78,1,14,5423.2,60.013654,30.310424,spb
11279,"ул. беломорская, 10 корпус 2",1979,110,1,16,5272.4,55.859731,37.471174,moscow
22070,"ул. косинская, 10",1997,135,2,17,4307.4,55.725493,37.836303,moscow
26697,"кленовый б-р, 20 корпус 3",1964,100,5,5,4489.7,55.679326,37.674445,moscow
5456,"ул. амурская, 62 корпус 1",2011,128,2,17,7139.3,55.813035,37.791181,moscow
19175,"ул. дмитрия ульянова, 12 корпус 2",1950,24,2,4,1195.4,55.689035,37.567563,moscow
20629,"ул. шверника, 1 корпус 3",1964,19,3,4,1287.1,55.694992,37.580553,moscow
34747,"ул. ольги форш, 5 литер а",1979,28,1,15,5447.07,60.037193,30.389449,spb
43371,"ул. пейзажная, 18 корпус 2 строение 1",2020,231,1,19,8817.0,60.015579,30.480826,spb
46886,"ул. седова, 21 литер а",1953,42,5,4,2984.43,59.892523,30.415015,spb
20661,"пр-кт комсомольский, 46 корпус 1",1959,45,3,5,2240.0,55.720408,37.571237,moscow
44836,"ул. зои космодемьянской, 29 литер б",1900,20,1,5,1092.2,59.892604,30.260182,spb
14729,"ул. маршала полубоярова, 4 корпус 2",1995,335,6,14,21486.0,55.687863,37.862246,moscow
27794,"ул. новорогожская, 40",2006,80,1,17,4264.0,55.738439,37.692663,moscow
25874,"ул. 4-я парковая, 5",1950,24,2,4,1559.81,55.789153,37.785575,moscow
8983,"ул. металлургов, 17",1959,54,4,5,2846.5,55.758362,37.785611,moscow
9896,"ул. минская, 4 корпус 1",1960,55,3,5,2221.0,55.73443,37.489131,moscow
8468,"ул. плеханова, 20",1969,81,1,12,3485.6,55.743061,37.766217,moscow
39334,"пр-кт московский, 198 литер а",1951,84,5,6,7504.0,59.861476,30.322812,spb
829,"ул. перовская, 66 корпус 4",2014,208,4,15,14349.0,55.744475,37.79976,moscow
11936,"ул. белореченская, 13 корпус 2",1982,108,1,16,5164.4,55.673595,37.767232,moscow
34352,"ул. курская, 12 литер а",1917,4,2,3,235.8,59.912716,30.345162,spb
22699,"ул. братеевская, 27 корпус 2",1985,359,7,14,21284.0,55.634959,37.758455,moscow
38281,"ул. галерная, 17 литер а",1822,88,3,5,2382.27,59.934218,30.296761,spb
5495,"ул. матвеевская, 3",1969,98,1,14,4225.5,55.702936,37.460376,moscow
41039,"пр-кт энгельса, 38 литер г",1952,33,4,4,2329.7,60.009381,30.324384,spb
9753,"рижский проезд, 13",1956,166,5,8,11146.0,55.817279,37.663333,moscow
43254,"пр-кт пятилеток, 20 литер а",1992,118,2,12,7274.0,59.924641,30.448621,spb
47588,"ул. лахтинская, 30 литер а",1910,27,3,5,2302.1,59.963701,30.297336,spb
33540,"ул. бронницкая, 2/70 литер а",1897,55,8,4,4457.4,59.917001,30.320189,spb
47432,"реки фонтанки наб., 150 литер о",1879,13,3,3,1329.5,59.915652,30.285873,spb
15797,"ул. бакинская, 21",1976,127,1,16,5799.8,55.619523,37.658248,moscow
21954,"сиреневый б-р, 1 корпус 5",1970,204,6,9,10130.5,55.802968,37.765067,moscow
4262,"пр-кт свободный, 6 корпус 3",1957,40,4,5,2588.0,55.757141,37.817385,moscow
36810,"пр-кт шаумяна, 30 литер а",1961,80,4,5,3535.5,59.928465,30.42107,spb
17354,"ул. профсоюзная, 24 корпус 1",1957,134,5,8,9338.6,55.679813,37.564132,moscow
37559,"пр-кт энгельса, 131 корпус 2 литер а",1976,143,4,10,7990.0,60.048269,30.334814,spb
38315,"ул. полозова, 4 литер а",1910,28,2,5,1472.6,59.962579,30.304936,spb
22725,"черского проезд, 15",2010,176,2,22,10069.9,55.876784,37.576286,moscow
41557,"пр-кт космонавтов, 65 корпус 2 литер а",2010,605,8,26,33926.3,59.836685,30.358017,spb
21773,"пр-кт ленинградский, 57",1920,49,5,6,3748.3,55.80058,37.524435,moscow
18652,"мартыновский, 2",1850,5,2,4,765.1,55.744941,37.658886,moscow
9214,"ул. крупской, 4 корпус 3",1958,194,6,8,13174.0,55.683518,37.530256,moscow
38527,"пр-кт энергетиков, 62 литер а",1966,100,5,5,4507.6,59.969916,30.434203,spb
11375,"ул. винокурова, 5/6 корпус 1",1957,60,3,5,3951.5,55.689187,37.585251,moscow
49852,"пр-кт ямашева, 110",1982,70,2,9,2300.5,55.828551,49.157025,kazan
16519,"волжский б-р, 27 корпус 3",2002,71,2,9,5004.3,55.703647,37.752634,moscow
48053,"ул. можайская, 29 литер а",1948,9,1,5,876.3,59.91507,30.328265,spb
32088,"ул. воронежская, 122 литер а",1900,10,1,5,963.37,59.908732,30.343096,spb
32553,"ул. егорова, 16 литер а",1910,34,7,7,3536.8,59.913514,30.314305,spb
16361,"ул. маршала тухачевского, 23 корпус 2",1968,215,6,9,10296.8,55.781469,37.476672,moscow
27444,"измайловский б-р, 9",1956,48,3,5,2924.9,55.797726,37.786644,moscow
8286,"волжский б-р, 5 корпус 1",2007,264,3,23,19863.0,55.717705,37.745007,moscow
36292,"пр-кт московский, 74 литер а",1917,17,1,6,1294.59,59.906152,30.319003,spb
35838,"ул. седова, 146 литер ш",1960,60,4,5,2771.0,59.865763,30.446016,spb
31979,"почтамтский пер., 2 литер а",1904,34,3,6,3203.15,59.932901,30.301387,spb
24955,"ул. ереванская, 4 корпус 3",1965,78,4,5,3451.0,55.62911,37.667941,moscow
45541,"котельникова аллея, 4 литер а",1977,538,15,9,27197.89,60.011225,30.291066,spb
206,"ул. нагорная, 31 корпус 3",1971,98,1,14,4237.0,55.673494,37.599238,moscow
42907,"ул. васи алексеева, 7 литер а",1958,45,3,5,2670.3,59.878134,30.268976,spb
39479,"пр-кт ветеранов, 37 литер а",1965,70,7,5,3173.96,59.842725,30.240769,spb
1003,"чечерский проезд, 100",1998,318,8,10,20075.1,55.530918,37.51821,moscow
9616,"ул. старобитцевская, 19 корпус 2",1992,175,2,22,10095.1,55.57664,37.580616,moscow
13599,"ул. марксистская, 9",1977,540,8,17,29083.0,55.734871,37.668156,moscow
9273,"ул. корнейчука, 36а",1977,234,5,12,13460.0,55.897004,37.625702,moscow
37308,"ул. кораблестроителей, 39 литер а",1976,132,3,9,6894.01,59.953813,30.230214,spb
38539,"пр-кт заневский, 15 литер а",1957,36,3,5,2078.42,59.927793,30.410784,spb
36106,"ул. малая посадская, 19 литер а",1904,47,3,6,5505.98,59.958102,30.329891,spb
6091,"1-й саратовский проезд, 8",1960,39,40,40,1574.3,55.710692,37.735135,moscow
49644,"ул. голубятникова, 20",2001,160,4,10,8474.6,55.837823,49.114364,kazan
10133,"задонский проезд, 18",1978,286,6,12,12934.6,55.624876,37.751529,moscow
907,"звездный б-р, 38 корпус 1",1961,64,1,8,2203.0,55.813546,37.624409,moscow
21498,"ул. тихвинская, 18/5",1978,125,1,16,3316.4,55.789871,37.600998,moscow
32908,"пр-кт ленинский, 129 литер а",1983,154,1,16,6921.7,59.851376,30.270045,spb
21811,"ул. лескова, 19",1981,127,1,16,5768.0,55.894606,37.615848,moscow
6823,"ул. борисовские пруды, 17 корпус 1",2004,254,4,17,14308.2,55.635762,37.720861,moscow
31280,"ул. первомайская, 28/24",1955,72,4,5,5124.69,55.792245,37.780356,moscow
29756,"ул. жигулевская, 12 корпус 3",1963,80,4,5,3532.3,55.709779,37.762551,moscow
39592,"ковенский пер., 26 литер а",1898,18,2,4,1082.8,59.9374,30.363425,spb
16472,"ул. петрозаводская, 22",1968,211,6,9,10360.4,55.866768,37.496623,moscow
6996,"пр-кт волгоградский, 12",1964,70,1,9,2493.0,55.729741,37.673933,moscow
34878,"ул. днепропетровская, 59 литер а",1913,37,2,7,902.7,59.911854,30.358098,spb
27451,"янтарный проезд, 25 корпус 1",1961,60,3,5,2592.0,55.871425,37.686868,moscow
13574,"кавказский б-р, 22",1972,120,1,15,5864.7,55.630075,37.663458,moscow
47111,"ул. караванная, 7 литер а",1798,33,7,5,2652.0,59.934659,30.340967,spb
8770,"ул. речников, 24 корпус 1",1965,80,4,5,3347.6,55.681808,37.690156,moscow
5666,"ш. измайловское, 19",1970,98,1,14,4244.7,55.779302,37.727131,moscow
44512,"ул. автовская, 30 литер а",1961,40,2,5,1607.6,59.874481,30.274141,spb
46208,"ул. ленина, 29 литер а",1906,29,4,6,2640.09,59.963498,30.30154,spb
12807,"ул. 5-я парковая, 47 корпус 1",1960,80,4,5,3489.0,55.804759,37.787237,moscow
36997,"ул. гранитная, 42 литер а",1964,100,5,5,4590.55,59.92456,30.428373,spb
29136,"ул. талдомская, 17 корпус 1",2002,400,7,17,22459.0,55.874329,37.523501,moscow
32641,"ул. садовая, 97 литер а",1907,26,2,7,2188.65,59.919274,30.290158,spb
10294,"ул. островитянова, 9 корпус 5",2004,122,2,22,11300.0,55.645004,37.496991,moscow
32099,"ул. солдата корзуна, 5 корпус 3 литер а",1968,118,6,5,5338.38,59.830196,30.216721,spb
37243,"ул. боровая, 62 литер б",1905,18,1,6,1645.01,59.913632,30.343419,spb
30739,"ул. новозаводская, 2 корпус 1",1959,56,3,5,2293.0,55.747287,37.514958,moscow
20953,"ул. дмитровка б., 7/5 строение 4",1917,4,2,3,870.0,55.760753,37.61441,moscow
22207,"ул. сергея макеева, 9 корпус 2",2017,134,1,17,12214.9,55.761644,37.550567,moscow
20678,"ул. новопеределкинская, 16",1988,272,4,17,17310.0,55.642824,37.36387,moscow
4343,"ул. 16-я парковая, 49 корпус 2",1967,179,5,9,9278.0,55.809246,37.827167,moscow
41617,"ул. чайковского, 4 литер а",1827,4,2,5,2579.0,59.946851,30.343689,spb
7850,"ул. 2-я дубровская, 2",1927,40,2,5,2511.0,55.728976,37.670277,moscow
22842,"ул. соколиной горы 5-я, 21 корпус 5",1961,80,4,5,3478.0,55.765696,37.738324,moscow
8199,"ул. полярная, 2",1971,79,1,14,3555.0,55.871753,37.638719,moscow
10457,"ул. гарибальди, 17 корпус 2",1960,80,4,5,3414.9,55.673763,37.547962,moscow
42575,"ул. новороссийская, 14 литер а",1960,80,4,5,3475.43,59.997851,30.337059,spb
11950,"ул. элеваторная, 6 корпус 1",1972,98,1,14,4255.0,55.601264,37.657017,moscow
48977,"ул. осиновская, 33",1989,34,3,3,1812.4,55.855073,48.889633,kazan
14309,"ул. егерская, 12",1958,30,2,5,1614.5,55.79433,37.685207,moscow
27537,"ул. бобруйская, 4 корпус 2",1965,60,3,5,2471.0,55.7359,37.40557,moscow
2062,"ш. щелковское, 92 корпус 2",1967,143,4,9,7126.0,55.81131,37.824302,moscow
10467,"ул. полярная, 13 корпус 2",2017,100,3,15,5625.2,55.874839,37.634533,moscow
31086,"ул. черняховского, 9 корпус 1",1972,98,1,14,4222.0,55.804896,37.53429,moscow
30480,"кировоградский проезд, 3 корпус 2",1990,252,3,22,15752.2,55.604503,37.593974,moscow
45816,"ул. будапештская, 88 корпус 3 литер а",1977,323,9,9,16328.9,59.841672,30.397202,spb
13921,"ул. боровая, 12",1973,94,1,14,2554.0,55.77,37.714815,moscow
21817,"ул. алтайская, 22",1968,84,1,12,3624.9,55.819778,37.81884,moscow
16712,"ул. 8-я текстильщиков, 18",1976,104,1,14,5114.0,55.701318,37.747648,moscow
15065,"ул. новопесчаная, 17 корпус 3",1950,54,4,6,3529.5,55.796967,37.514275,moscow
41080,"ул. пионерская, 9/17 литер а",1900,24,2,5,2037.9,59.956367,30.294309,spb
4441,"ул. таллинская, 20 корпус 2",1981,235,6,12,12281.9,55.798303,37.402884,moscow
31022,"п. десеновское, ул. гимнастическая, 24",2014,16,2,3,1035.0,55.515298,37.373311,moscow
32143,"придорожная аллея, 3 литер а",1976,251,7,9,13765.17,60.058466,30.345198,spb
35395,"ул. вавиловых, 15 корпус 3 литер а",1967,139,7,5,6870.51,60.021987,30.39589,spb
28874,"ул. семеновский вал, 10 корпус 3",1962,60,3,5,2482.0,55.776821,37.713539,moscow
12223,"дежнева проезд, 2",1965,72,1,9,2586.0,55.872062,37.645285,moscow
43926,"ул. турку, 24 корпус 1 литер а",1967,216,6,9,11196.8,59.868171,30.402681,spb
2112,"ул. юных ленинцев, 68 корпус 1",1963,72,1,9,2579.8,55.698807,37.772873,moscow
6306,"ул. верхняя масловка, 16",1976,85,1,16,4839.0,55.79392,37.564212,moscow
48822,"ул. пионерская, 2",1950,12,2,2,506.5,55.805103,49.182025,kazan
4313,"алымов пер., 17 корпус 1",1959,60,4,5,3287.0,55.80782,37.712866,moscow
30231,"кленовый б-р, 15",1973,357,10,9,17880.1,55.678692,37.680616,moscow
3656,"ул. ельнинская, 15 корпус 3",2005,123,9,9,13862.0,55.737948,37.416314,moscow
34719,"ул. прилукская, 20 строение 1",2018,96,2,10,6005.2,59.909847,30.349214,spb
28538,"ул. алябьева, 8",1958,60,3,5,2531.0,55.744085,37.486005,moscow
5855,"ш. ленинградское, 80",1976,188,1,16,5042.5,55.847887,37.47633,moscow
29590,"ул. кусковская, 23 корпус 4",1964,60,3,5,1787.4,55.741698,37.781218,moscow
23972,"ул. лобачевского, 10",1963,71,1,9,2568.0,55.667828,37.507825,moscow
37480,"ул. подводника кузьмина, 48 литер а",1965,50,5,5,2437.6,59.842797,30.267817,spb
1103,"ул. маршала мерецкова, 12",1951,27,5,3,1900.9,55.795332,37.487245,moscow
37001,"пр-кт комендантский, 59 корпус 2 строение 1",2018,224,3,21,10530.6,60.034124,30.23237,spb
15804,"пр-кт ленинский, 67 корпус 1",2013,119,1,22,9845.0,55.690314,37.552957,moscow
5118,"ул. ереванская, 10 корпус 3",1964,80,4,5,3536.0,55.628027,37.668965,moscow
25550,"пр-кт ленинградский, 60а",1938,149,10,8,11373.7,55.800094,37.5357,moscow
39793,"ул. десантников, 12 корпус 1 литер а",1991,391,7,10,15651.3,59.859013,30.206938,spb
36836,"ул. витебская, 5/6 литер а",1798,23,3,5,1842.85,59.921597,30.282145,spb
8841,"ул. яхромская, 1а",1969,287,8,9,14108.0,55.881646,37.538269,moscow
47419,"ул. ивана черных, 3 корпус 2 литер б",1910,20,2,5,1341.77,59.899541,30.276809,spb
45418,"ул. козлова, 49 корпус 2 литер а",1969,139,7,5,6866.82,59.828224,30.226782,spb
38361,"пр-кт искровский, 29 литер э",1972,207,4,9,9640.1,59.89899,30.471977,spb
11485,"ул. щорса, 4 корпус 1",1987,136,2,17,8633.0,55.647097,37.404968,moscow
37829,"ул. бассейная, 75 литер а",1962,110,6,5,5038.06,59.863549,30.343644,spb
740,"ул. плеханова, 14 корпус 3",1965,60,3,5,2581.1,55.745093,37.763656,moscow
7678,"пр-кт вернадского, 65",2014,168,1,23,10138.0,55.671123,37.502902,moscow
21800,"ул. тимирязевская, 9",1969,142,4,9,6335.9,55.808902,37.568156,moscow
26216,"ул. байкальская, 16 корпус 4",1957,33,5,3,1707.9,55.815868,37.791962,moscow
43217,"ш. фермское, 36 корпус 27 литер а",1965,100,5,5,4171.6,60.018129,30.306508,spb
31861,"ул. декабристов, 36/1 литер а",1843,58,7,5,3997.25,59.925493,30.292593,spb
14934,"ул. 10-я соколиной горы, 6 корпус 1",1994,352,9,14,22256.5,55.772674,37.72961,moscow
26492,"ул. фестивальная, 41 корпус 2",2010,238,2,22,12429.7,55.858761,37.482843,moscow
49669,"ул. химиков, 53",1971,100,6,5,3037.6,55.87496,49.017921,kazan
27382,"ул. шверника, 9 корпус 5",1965,62,1,9,2720.8,55.69382,37.586967,moscow
46051,"8-я в.о. линия, 45/34 литер а",1917,93,11,6,7604.2,59.942038,30.276872,spb
31024,"ул. профсоюзная, 119 корпус 1",1986,198,3,17,10972.2,55.629221,37.518542,moscow
6019,"борисоглебский пер., 13 строение 3",2006,12,2,5,3050.0,55.754877,37.589437,moscow
32581,"пр-кт индустриальный, 28 литер а",1981,215,3,12,10539.2,59.949487,30.471887,spb
46858,"пр-кт лиговский, 160 литер б",1900,8,1,5,574.89,59.912152,30.349744,spb
6865,"ул. качалинская, 7",1989,48,1,12,2168.6,55.73221,37.67387,moscow
42179,"ул. ткачей, 12 литер м",1925,12,2,3,925.7,59.893263,30.430897,spb
27852,"ул. селигерская, 26 корпус 1",2013,225,4,17,11050.0,55.868576,37.55019,moscow
40684,"ул. танкиста хрустицкого, 108 литер а",1964,40,4,5,3558.8,59.835107,30.257469,spb
6048,"ул. 2-я мелитопольская, 5 корпус 1",2001,64,1,16,4060.0,55.538723,37.57422,moscow
26623,"ул. днепропетровская, 21",1970,98,1,14,4252.4,55.622822,37.588251,moscow
44664,"дмитровский пер., 9 литер а",1870,11,2,4,1192.81,59.929921,30.349887,spb
45638,"ул. полозова, 8 литер а",1895,11,1,4,522.6,59.962904,30.304091,spb
26776,"ул. гончарова, 1/6",1962,51,3,5,2077.0,55.815205,37.582322,moscow
22924,"ул. изюмская, 57",2009,88,2,12,5702.0,55.544061,37.562335,moscow
26524,"пятницкое, 36",1996,209,4,16,13426.0,55.854082,37.362136,moscow
13592,"ул. грина, 28 корпус 1",2002,209,5,12,12420.3,55.568543,37.571938,moscow
28815,"ул. норильская, 1",1971,251,7,9,11051.0,55.875597,37.693696,moscow
22115,"ул. новопеределкинская, 6",1988,166,2,22,10849.0,55.64037,37.370536,moscow
34800,"ул. ольги берггольц, 1 литер а",1959,96,7,5,5814.09,59.896838,30.430718,spb
9561,"большой рогожский пер., 10 корпус 3",1973,98,1,14,4240.0,55.741642,37.667483,moscow
7854,"ул. бутлерова, 24",1972,256,8,9,13335.0,55.648072,37.537236,moscow
39503,"пр-кт энгельса, 36 литер а",1953,49,5,4,3248.1,60.008833,30.324995,spb
43619,"пр-кт скобелевский, 16 литер а",1952,33,4,4,2610.6,60.017746,30.316183,spb
21392,"п. филимонковское, ул. харлампиева, 22 корпус 1",2021,44,1,4,1334.0,55.552194,37.325359,moscow
37524,"пр-кт народного ополчения, 227 литер а",1970,118,6,5,5284.55,59.825253,30.161295,spb
17466,"ул. госпитальный вал, 5 строение 3",2001,95,2,12,5462.5,55.773819,37.709138,moscow
11967,"бескудниковский б-р, 23 корпус 1",1992,112,1,15,5876.7,55.867647,37.556433,moscow
49685,"ул. модельная, 8",1989,58,4,5,1479.3,55.748503,49.140595,kazan
21427,"пр-кт севастопольский, 7 корпус 6",1966,110,4,5,3397.6,55.69041,37.611248,moscow
47567,"ул. профессора попова, 40 литер а",1962,11,2,5,1967.54,59.970447,30.290634,spb
49562,"ул. рихарда зорге, 84",1987,180,5,9,10151.2,55.744642,49.215002,kazan
42337,"ул. пасторова, 6 литер а",1841,12,3,3,937.59,59.920483,30.291021,spb
22057,"ул. наримановская, 32",1961,119,6,5,1284.0,55.815863,37.709434,moscow
39392,"ул. фурштатская, 30 литер а",1863,9,2,3,287.8,59.94545,30.356706,spb
9768,"ул. полины осипенко, 22 корпус 2",2001,134,2,17,7586.0,55.781388,37.527714,moscow
31428,"янтарный проезд, 15",1961,56,3,5,2374.0,55.869076,37.683419,moscow
9126,"ул. ясногорская, 13 корпус 1",1984,252,1,22,12860.0,55.604336,37.534793,moscow
46486,"ул. геологическая, 75 корпус 3 литер а",2001,40,1,5,2112.9,59.753097,30.079018,spb
24290,"ул. челябинская, 6",1975,379,8,12,17404.0,55.776132,37.823646,moscow
22730,"ш. алтуфьевское, 82",1984,685,8,22,42750.0,55.894318,37.588826,moscow
20836,"ул. магаданская, 12",1965,64,4,5,2687.0,55.879308,37.684829,moscow
620,"ул. станиславского, 11",2009,54,5,6,6768.4,55.744774,37.659865,moscow
40086,"горелово, ш. красносельское, 38 литер а",1968,70,7,5,3124.0,59.786482,30.145997,spb
32189,"пр-кт литейный, 11 литер а",1873,95,6,5,7100.0,59.945125,30.348342,spb
12144,"ш. хорошевское, 1",1956,99,8,5,7271.4,55.773105,37.543524,moscow
39750,"ул. некрасова, 41 литер а",1880,19,3,4,1268.7,59.938428,30.364332,spb
3824,"ул. чесменская, 5",1959,30,3,5,2666.0,55.734785,37.696795,moscow
39196,"ул. брянцева, 22 литер а",1971,133,9,5,6294.01,60.040164,30.405897,spb
36648,"ул. афанасьевская, 3 строение 1",2016,1,3,5,3159.6,60.033009,30.293024,spb
7653,"ул. южнобутовская, 107",1996,152,8,9,9631.0,55.534204,37.519342,moscow
14895,"ул. затонная, 7 корпус 1",1967,128,4,9,5462.4,55.680057,37.684425,moscow
36652,"пр-кт ветеранов, 95 литер а",1969,248,5,9,11233.1,59.833633,30.207558,spb
12029,"ул. люблинская, 50 строение 1",1963,93,5,5,4020.3,55.679377,37.737929,moscow
49263,"ул. клары цеткин, 9",1996,85,1,14,4678.2,55.798677,49.061929,kazan
45689,"ул. седова, 24 корпус 3 литер а",2012,342,2,23,18001.1,59.894919,30.413335,spb
1214,"ул. плющиха, 9 строение 4",1935,45,4,5,2195.0,55.744526,37.58058,moscow
34253,"пр-кт луначарского, 19 корпус 1 литер а",1977,403,11,9,23025.99,60.041296,30.337553,spb
43334,"ул. черкасова, 11 корпус 1 литер а",1970,179,5,9,9500.76,60.026222,30.42301,spb
14998,"ул. ключевая, 24 корпус 1",1996,306,6,14,16807.5,55.63098,37.763764,moscow
37879,"ул. ленская, 5 литер а",1983,52,1,15,5957.2,59.940673,30.48229,spb
1905,"ул. первомайская, 121",1958,63,5,5,4443.0,55.793844,37.821499,moscow
13079,"ул. петра романова, 6",1963,224,7,9,9729.4,55.708308,37.68067,moscow
20012,"ул. севанская, 3",1970,215,6,9,10643.7,55.618995,37.664006,moscow
49766,"ул. курская, 11",2002,13,1,6,1549.9,55.789613,49.177911,kazan
9438,"брюсов пер., 19",2007,26,1,8,6490.4,55.759973,37.608077,moscow
15417,"окружной проезд, 14 корпус 2",1960,45,3,5,2413.3,55.7902,37.741836,moscow
35771,"ул. маршала говорова, 6/5 литер а",1958,69,1,5,4400.11,59.875637,30.263604,spb
10305,"ул. бехтерева, 37 корпус 2",1968,84,1,12,3621.0,55.620804,37.648367,moscow
43907,"ул. декабристов, 54 литер б",1909,33,5,7,4156.12,59.924046,30.287122,spb
41172,"ковенский пер., 23 литер а",1911,15,3,7,2446.0,59.937157,30.362095,spb
44974,"пр-кт народного ополчения, 221 литер а",1971,250,7,9,12930.76,59.824923,30.169676,spb
15442,"пр-кт маршала жукова, 22 корпус 4",1983,66,1,12,3356.0,55.777393,37.484217,moscow
21786,"ш. алтуфьевское, 60",1980,276,6,12,15689.8,55.882823,37.587937,moscow
38570,"пр-кт лермонтовский, 3 литер в",1872,13,3,5,2246.31,59.924095,30.289871,spb
12469,"сретенский б-р, 6/1 строение 2",1901,42,7,5,5774.8,55.765924,37.634982,moscow
22180,"ул. академика понтрягина, 11",2006,184,4,14,10171.0,55.534658,37.500953,moscow
15466,"ул. фабрициуса, 19 корпус 1",1958,24,2,3,1532.0,55.843338,37.435178,moscow
30168,"ул. трофимова, 18",1967,111,1,16,6103.1,55.702409,37.671768,moscow
18020,"петровско-разумовский проезд, 12",1958,75,5,5,3938.0,55.795757,37.569566,moscow
46956,"пр-кт обуховской обороны, 87 литер а",1917,16,2,6,1613.45,59.899613,30.428409,spb
18650,"ул. мневники, 12",1968,215,6,9,10648.6,55.773824,37.490362,moscow
10163,"ул. икшинская, 10",1963,80,4,5,3417.0,55.886115,37.538548,moscow
22601,"ул. гришина, 25",1966,64,4,5,2751.0,55.725448,37.414194,moscow
20796,"ул. 1-я дубровская, 4",1927,56,5,6,3679.2,55.727298,37.668983,moscow
39532,"пл. чернышевского, 5 литер а",1954,52,2,7,3401.3,59.869268,30.317485,spb
19218,"ул. бойцовая, 14 корпус 2",1962,60,3,5,2527.0,55.812322,37.719944,moscow
19035,"ул. молодогвардейская, 1 корпус 2",1970,480,6,9,10716.1,55.732524,37.441916,moscow
36636,"ул. благодатная, 5 литер а",1960,100,5,5,4183.0,59.874657,30.300354,spb
10277,"ул. самотечная, 13",1963,65,1,9,2340.0,55.777515,37.617518,moscow
830,"ул. шоссейная, 29 корпус 1",1969,81,1,12,3464.1,55.682336,37.724948,moscow
33360,"ул. лодейнопольская, 2 литер а",1962,115,6,5,5133.25,59.964124,30.288559,spb
30642,"ул. нагатинская, 11 корпус 1",1970,80,1,12,3487.7,55.680194,37.639312,moscow
42218,"ул. олеко дундича, 35 корпус 1 литер а",1983,428,6,12,23254.62,59.833787,30.42328,spb
36910,"ул. бронницкая, 28 литер а",1908,9,1,7,647.8,59.913537,30.323827,spb
7512,"ул. 11-я текстильщиков, 4",1961,60,3,5,2428.2,55.706188,37.740947,moscow
48830,"ул. гагарина, 4а",1959,20,10,2,642.6,55.84076,49.098976,kazan
47870,"ул. калязинская, 3 литер а",1952,14,2,3,775.0,60.015529,30.321806,spb
6295,"ул. газопровод, 3 корпус 1",1973,855,8,12,34947.5,55.592378,37.604232,moscow
26154,"ул. 2-я парковая, 4",1958,40,2,5,1565.5,55.788748,37.781353,moscow
23150,"ул. ботаническая, 19",1960,76,4,5,3184.0,55.828101,37.601088,moscow
29574,"ул. кастанаевская, 45 корпус 1",2008,228,3,20,10493.2,55.731653,37.465703,moscow
41014,"ул. благодатная, 17 литер а",1960,100,5,5,4189.0,59.874797,30.303696,spb
15073,"тишинский ср. пер., 16",1984,106,1,12,2967.0,55.770284,37.577939,moscow
1953,"ул. курганская, 12",1990,110,2,14,4996.3,55.829461,37.823376,moscow
476,"ул. футбольная, 24",2013,33,3,3,1575.7,55.51407,37.373455,moscow
6292,"ясный проезд, 13",1979,168,3,12,9465.0,55.874223,37.621184,moscow
5368,"ул. нагорная, 24 корпус 2",1958,20,1,5,1761.0,55.67826,37.601196,moscow
4008,"ул. менжинского, 32 корпус 3",1981,128,2,16,8016.9,55.870157,37.665938,moscow
32018,"ул. декабристов, 9 литер а",1880,22,3,7,1800.89,59.928631,30.304585,spb
49664,"ул. аметьевская магистраль, 16 корпус 2",2019,242,1,24,10390.3,55.768025,49.173824,kazan
26376,"большой сухаревский пер., 6",1914,42,2,7,2885.5,55.770426,37.62687,moscow
31721,"обводного канала наб., 132 литер а",1904,245,4,6,6907.71,59.908529,30.291488,spb
4812,"ул. оренбургская, 26 корпус 1",1966,80,4,5,3531.5,55.711655,37.865103,moscow
42576,"пр-кт тореза, 90 литер а",1962,45,1,9,1963.7,60.016834,30.335191,spb
11846,"ул. марии ульяновой, 8",1958,134,4,8,9414.0,55.681143,37.526178,moscow
40943,"пр-кт северный, 24 корпус 3 литер а",1978,448,12,1,24685.0,60.03376,30.35057,spb
29584,"ул. профсоюзная, 99",1969,428,12,9,14538.0,55.6372,37.524399,moscow
17671,"ул. одесская, 23 корпус 2",1962,80,4,5,3063.0,55.657088,37.593291,moscow
33646,"ул. есенина, 30 литер а",1981,35,1,15,6054.79,60.050309,30.340662,spb
40255,"ул. караваевская, 33 корпус 5 литер а",1961,64,4,4,2530.07,59.829061,30.512437,spb
22835,"ул. талалихина, 1 корпус 2",2001,120,2,16,7717.3,55.735662,37.678218,moscow
20910,"ул. ивана бабушкина, 22",1958,59,3,5,3902.0,55.683524,37.557466,moscow
3578,"ул. молостовых, 2 корпус 2",1975,190,4,12,11009.0,55.765655,37.829862,moscow
11140,"ул. городецкая, 3",1987,171,2,22,11124.9,55.744019,37.866558,moscow
49171,"ул. тунакова, 47",1955,32,2,5,3065.6,55.832581,49.084324,kazan
21346,"ул. николая старостина, 9",2000,72,2,9,3181.6,55.731551,37.853623,moscow
44338,"пр-кт мечникова, 3 корпус 2 литер а",1968,99,5,5,4476.6,59.984998,30.420971,spb
8270,"ул. ельнинская, 14 корпус 1",2018,148,4,12,8795.6,55.737355,37.425782,moscow
27776,"ул. металлургов, 30",1966,80,4,5,2370.0,55.758838,37.792438,moscow
8529,"1-й очаковский, 10",1956,40,3,5,2764.2,55.684056,37.460259,moscow
16646,"ул. чертановская, 48 корпус 2",1983,677,10,17,42807.7,55.607641,37.588296,moscow
18086,"ул. черкизовская б., 14 корпус 1",1967,143,4,9,7207.0,55.797301,37.727041,moscow
13642,"малый казенный пер., 12 строение 2",1990,35,1,6,2522.9,55.760748,37.654412,moscow
25152,"ул. новочеремушкинская, 24 корпус 2",1998,316,6,17,17926.4,55.680539,37.57439,moscow
9275,"шебашевский проезд, 8 корпус 2",1958,66,5,5,3523.0,55.806322,37.532888,moscow
41108,"пр-кт дачный, 35 литер а",1967,54,1,9,1935.9,59.836002,30.264125,spb
13971,"ул. нелидовская, 13 корпус 1",1961,52,3,5,2157.0,55.845365,37.44232,moscow
16575,"ул. коломенская, 21",1981,330,7,12,18980.6,55.677727,37.694297,moscow
34558,"пр-кт гражданский, 47 корпус 1 литер а",1958,12,1,3,411.16,60.014045,30.400444,spb
44200,"ул. думская, 5/22 литер а",1848,96,11,4,8835.53,59.933393,30.328085,spb
7038,"ш. коровинское, 9 корпус 1",1967,80,1,12,3497.2,55.868152,37.536976,moscow
24516,"ул. елецкая, 9 корпус 2",1978,187,4,12,4757.0,55.609055,37.734641,moscow
46024,"8-я в.о. линия, 53 литер б",1914,8,1,4,614.7,59.943796,30.276046,spb
37863,"ул. захарьевская, 41 литер а",1906,26,4,7,6976.31,59.947428,30.366785,spb
4902,"мукомольный проезд, 1 корпус 1",1960,80,4,5,3392.2,55.75054,37.524992,moscow
33947,"пр-кт индустриальный, 17 корпус 2 литер а",1986,15,1,16,7455.5,59.94321,30.479433,spb
23001,"ул. менжинского, 18",1966,72,1,9,2532.0,55.868612,37.674076,moscow
37633,"пр-кт чкаловский, 14 литер а",1902,42,4,5,3422.3,59.960386,30.289925,spb
1736,"ул. 1-я мелитопольская, 10",2002,143,2,16,8052.0,55.541657,37.579834,moscow
13818,"напольный проезд, 16",1968,142,4,9,6875.0,55.756741,37.829467,moscow
19274,"п. десеновское, ул. облепиховая, 5",2014,36,3,3,1546.5,55.511705,37.368487,moscow
12744,"ул. недорубова, 14",2016,192,2,25,11104.7,55.702054,37.93466,moscow
38541,"ш. южное, 108 литер а",1949,25,1,5,1677.0,59.861778,30.411215,spb
444,"ул. нижегородская, 75а",1962,60,3,5,2574.0,55.732636,37.722253,moscow
15221,"пр-кт солнцевский, 19",1987,322,5,17,17560.0,55.647092,37.410448,moscow
22475,"новодевичий проезд, 2",1961,167,6,8,9647.0,55.728089,37.560017,moscow
723,"ул. 1812 года, 4/45 корпус 2",1971,108,3,9,5447.0,55.736549,37.526151,moscow
13537,"студеный проезд, 8",1968,80,1,12,3490.0,55.893198,37.656981,moscow
19266,"ш. варшавское, 190 корпус 2",1957,8,2,2,401.3,55.549954,37.585197,moscow
19170,"ул. харьковская, 3 корпус 7",1975,111,1,16,5269.8,55.58552,37.652014,moscow
14908,"1-й хорошевский проезд, 14 корпус 3",1949,35,3,4,1755.3,55.775565,37.544306,moscow
19513,"шокальского проезд, 29 корпус 2",2007,192,3,17,10755.0,55.881278,37.646076,moscow
27609,"ул. краснодарская, 52",1982,191,4,12,9882.6,55.675214,37.768274,moscow
37062,"дмитровский пер., 17 литер а",1882,25,2,5,2278.38,59.929046,30.349519,spb
11880,"ул. вучетича, 16 корпус 1",1981,83,1,14,4369.0,55.810729,37.560098,moscow
39437,"пр-кт славы, 2 корпус 4 литер а",1965,197,4,9,10960.91,59.857061,30.367979,spb
47340,"ул. верейская, 7 литер а",1887,15,2,4,924.4,59.91742,30.324034,spb
25202,"ул. краснопрудная, 36 строение 1",1929,144,2,7,1654.4,55.780502,37.668956,moscow
21696,"ул. веерная, 34 корпус 2",1966,120,6,5,5156.0,55.711945,37.481001,moscow
28865,"ул. серпуховский вал, 8",1974,204,2,16,10956.3,55.712107,37.616458,moscow
23925,"3-й лихачевский пер., 7 корпус 1",1984,143,3,12,8246.2,55.848579,37.517832,moscow
17522,"ул. фортунатовская, 15",1961,72,1,9,2600.7,55.788454,37.739177,moscow
42302,"пр-кт невский, 152 литер а",2008,39,1,9,4795.0,59.928099,30.373998,spb
28440,"песчаный пер., 4",1971,326,7,12,15488.5,55.800317,37.509676,moscow
29141,"ул. перерва, 33",1999,356,6,17,19629.9,55.660028,37.743345,moscow
122,"ул. нижняя первомайская, 2",2007,52,1,14,3561.6,55.790752,37.791863,moscow
28627,"ш. каширское, 9 корпус 4",1952,6,2,5,3232.0,55.668422,37.632386,moscow
29113,"ул. подвойского, 20",1959,60,3,5,2537.0,55.764004,37.538143,moscow
4273,"якушкина проезд, 6а",1980,105,1,16,5011.0,55.858362,37.613117,moscow
16271,"ул. часовая, 25 корпус 2",1973,98,1,14,4255.0,55.810784,37.518003,moscow
30325,"пр-кт ленинский, 129а",1983,128,2,16,8195.2,55.643439,37.482681,moscow
46093,"ул. марата, 76 литер а",1898,55,5,5,5110.65,59.920275,30.342297,spb
