,Address,Year,Flats,Entrance,Height,Square,Latitude,Longitude
0,"пр-кт суздальский, 73 литер а",1972,251,7,9,12944.25,60.049101,30.39589
1,"ул. 10-я красноармейская, 13 литер а",1863,13,3,5,1471.95,59.912982,30.295737
2,"пр-кт большевиков, 7 корпус 3 литер а",2013,575,3,26,34329.4,59.915052,30.47001
3,"ул. большая конюшенная, 4-6-8 литер а",1916,14,2,4,991.0,59.938239,30.323872
4,"ул. димитрова, 4 корпус 1 литер а",1972,476,13,9,25176.6,59.845935,30.374088
5,"загребский б-р, 35/28 литер а",1979,71,2,9,4077.0,59.83243,30.412266
6,"ул. большая пороховская, 46 литер а",1964,100,5,5,4456.05,59.954056,30.429631
7,"тер. большая каменка, 16 литер а",1964,2,1,1,78.3,60.040851,30.186996
8,"реки фонтанки наб., 98 литер в",1969,10,1,5,590.7,59.923739,30.324977
9,"пр-кт народного ополчения, 51 литер а",1964,54,1,9,1927.2,59.845496,30.278992
10,"ул. замшина, 30 литер а",1961,60,3,5,2601.0,59.974604,30.39978
11,"ш. петергофское, 84 корпус 4 литер а",2017,72,2,10,4257.5,59.848642,30.111412
12,"ул. маршала казакова, 10 корпус 1 литер д",1978,84,1,16,4730.4,59.857717,30.239736
13,"ул. фурштатская, 28 литер а",1916,20,3,5,1227.47,59.945445,30.356481
14,"ул. 2-я советская, 12 литер а",1903,34,5,6,2986.8,59.931567,30.369866
15,"ул. лени голикова, 23 корпус 4 литер а",1967,70,7,5,3188.5,59.843796,30.226773
16,"ул. конная, 10 литер в",1907,13,1,7,790.5,59.929294,30.37584
17,"ул. гжатская, 22 корпус 3 литер а",2011,787,9,22,56773.4,60.012543,30.387635
18,"16-я в.о. линия, 77 литер б",1908,22,1,6,856.7,59.944436,30.26152
19,"ул. 2-я комсомольская, 25 корпус 1 литер а",1961,35,3,3,1438.7,59.837666,30.14323
20,"ул. корнея чуковского, 5 корпус 3 строение 1",2016,190,1,23,9595.9,60.027984,30.457757
21,"пр-кт маршака, 2 корпус 1 литер а",2015,272,4,18,16691.5,60.036461,30.447148
22,"пр-кт дачный, 21 корпус 5 литер а",1965,100,5,5,4214.89,59.838561,30.255861
23,"пр-кт тореза, 102 корпус 5 литер а",1965,287,4,9,10747.4,60.01896,30.328427
24,"ул. пограничника гарькавого, 38 корпус 1 литер а",1966,120,6,5,5360.22,59.831372,30.147856
25,"ул. крупской, 21 литер а",1912,4,3,5,2787.62,59.889954,30.429828
26,"пр-кт народного ополчения, 229 литер а",1970,118,6,5,5387.7,59.825832,30.160082
27,"реки фонтанки наб., 55 литер а",1863,32,6,6,3895.0,59.929272,30.336305
28,"пр-кт рижский, 48 литер а",1899,72,3,5,1726.4,59.913244,30.280546
29,"ул. зверинская, 20 литер а",1910,33,3,6,2894.89,59.953196,30.298495
30,"ул. туристская, 13 корпус 1 литер а",2009,302,3,17,18681.6,59.998166,30.210514
31,"ул. пудожская, 3 литер а",1970,85,3,6,4171.0,59.964332,30.295117
32,"ул. 2-я советская, 14/4 литер а",1904,55,4,6,4432.1,59.931422,30.37027
33,"ул. 8-я советская, 25 литер а",1894,21,3,5,1677.7,59.936102,30.374968
34,"ковенский пер., 28 литер а",1860,11,2,4,1130.4,59.9374,30.36391
35,"пр-кт трамвайный, 11 корпус 1 литер а",1961,70,7,5,3162.1,59.855697,30.26134
36,"пр-кт металлистов, 130 литер а",1960,80,4,5,3479.17,59.974356,30.386718
37,"ул. народная, 39 литер б",1963,80,5,5,3502.12,59.881882,30.471861
38,"ул. гатчинская, 31-33 литер а",1910,80,2,7,7167.44,59.963327,30.296923
39,"пр-кт обуховской обороны, 69 литер в",1871,12,2,5,1118.25,59.902285,30.424115
40,"ул. коммуны, 32 корпус 3 литер а",1981,143,4,9,7887.6,59.949496,30.497489
41,"ул. подвойского, 20 корпус 1 литер х",1972,306,8,9,16337.0,59.912648,30.472759
42,"9-я в.о. линия, 48 литер а",1909,101,8,6,7688.5,59.943927,30.273755
43,"ул. пулковская, 13 литер а",2002,370,5,16,22506.3,59.837323,30.347893
44,"пр-кт рижский, 18 литер к",1889,8,1,5,729.1,59.913365,30.292826
45,"офицерский пер., 3-5 литер а",1932,20,3,4,2522.76,59.954534,30.288487
46,"ул. большая разночинная, 19 литер а",1909,55,2,8,3967.2,59.960634,30.288371
47,"пр-кт ярославский, 8 литер б",1949,16,4,2,860.5,60.01145,30.321599
48,"ул. 3-я советская, 7 литер а",1904,42,4,6,4390.9,59.932184,30.369471
49,"ул. белинского, 7 литер а",1849,22,3,4,1275.3,59.938081,30.34633
50,"институтский пер., 5 корпус 5 литер а",1885,4,1,1,173.6,59.994958,30.341991
51,"ул. композиторов, 22 корпус 4 литер а",2003,105,1,17,5827.5,60.060819,30.316632
52,"пр-кт дальневосточный, 33 корпус 1 строение 1",2019,759,4,25,33958.4,59.898864,30.458745
53,"пр-кт гражданский, 130 корпус 2 литер а",1971,90,6,5,4343.76,60.041463,30.423837
54,"ул. лахтинская, 21 литер а",1970,60,2,5,1754.43,59.963764,30.298189
55,"ул. типанова, 32 корпус 2 литер а",2002,162,2,16,9940.5,59.85224,30.358978
56,"ул. маяковского, 7/27 литер а",1826,23,2,4,1923.0,59.935453,30.355169
57,"ул. бабушкина, 79 литер а",1954,30,2,5,1937.66,59.8743,30.444758
58,"пр-кт загородный, 28 литер а",1898,78,11,5,6645.26,59.925047,30.340248
59,"ул. гороховая, 64 литер а",1902,22,5,6,2647.8,59.923054,30.330591
60,"пр-кт стачек, 73 литер а",1955,91,3,7,6085.99,59.86837,30.25958
61,"пр-кт энергетиков, 4 корпус 3 строение 1",2019,231,3,15,13480.6,59.935205,30.433565
62,"ул. тюшина, 12 литер а",1813,11,1,4,661.53,59.916789,30.349241
63,"пр-кт художников, 15 корпус 2 литер а",1977,72,2,10,4284.0,60.03714,30.347399
64,"ул. малая десятинная, 36 строение 1",2016,44,3,5,3149.8,60.033513,30.294264
65,"пр-кт лиговский, 183 литер б",1905,16,1,5,885.5,59.91282,30.348037
66,"ул. лени голикова, 31 корпус 3 литер а",1973,97,1,14,4612.0,59.840912,30.22821
67,"пр-кт гражданский, 105 корпус 1 литер а",1973,464,11,9,23311.5,60.026667,30.412671
68,"ул. кржижановского, 13 литер а",1981,223,6,9,12332.3,59.930489,30.480215
69,"8-я в.о. линия, 15 литер в",1917,6,1,4,469.9,59.937738,30.282505
70,"ул. шаврова, 5 корпус 2 литер а",1990,119,3,10,6822.5,60.020867,30.228884
71,"пр-кт тореза, 21 литер к",1961,80,5,5,3482.76,60.00285,30.360559
72,"ул. щербакова, 21 литер а",2012,29,1,6,2080.5,60.027844,30.29112
73,"пр-кт большеохтинский, 9 литер а",2010,161,1,21,15636.7,59.948172,30.410892
74,"октябрьская наб., 74 корпус 1 литер а",1956,83,7,5,5594.93,59.873623,30.46179
75,"ул. канонерская, 7-9 литер б",1884,7,1,4,362.75,59.920623,30.291721
76,"пр-кт обуховской обороны, 77 литер а",1886,16,2,5,1007.2,59.90122,30.425804
77,"ул. пионерстроя, 15 корпус 1 литер а",1974,90,1,16,3726.6,59.842576,30.129216
78,"огородный пер., 11 литер а",1957,45,3,5,3212.07,59.885643,30.273018
79,"красных зорь б-р, 10 литер з",1960,6,2,5,3204.6,59.870438,30.443564
80,"пр-кт московский, 172 корпус 7 литер а",1953,53,3,6,3270.3,59.877574,30.322704
81,"ул. 4-я советская, 4/9 литер а",1860,6,1,4,662.5,59.934682,30.366776
82,"ул. аэродромная, 7 корпус 1 литер а",1973,179,5,10,9338.4,59.997428,30.294246
83,"джамбула пер., 7 литер а",1875,18,5,3,1335.33,59.925615,30.334149
84,"ул. парашютная, 20 корпус 1 литер а",1986,118,2,12,6906.6,60.016699,30.274824
85,"пр-кт средний в.о., 6/13 литер а",1917,26,6,4,2065.84,59.945671,30.288029
86,"пр-кт юнтоловский, 53 корпус 3 литер а",2014,268,9,5,15023.3,60.03247,30.146922
87,"ул. боровая, 14 литер а",1885,22,4,5,2886.59,59.921011,30.348181
88,"пр-кт дачный, 26 корпус 1 литер а",1965,50,5,5,2457.3,59.840578,30.25984
89,"ул. фурштатская, 34 литер а",1917,10,5,4,1234.11,59.945427,30.357604
90,"пр-кт обуховской обороны, 131 литер в",1917,15,1,5,1322.22,59.886654,30.442225
91,"ул. руставели, 30 литер а",1967,159,8,5,7371.19,60.009188,30.433529
92,"ул. карпинского, 28 корпус 2 литер а",1965,100,5,5,4477.59,60.01016,30.424726
93,"ул. шевченко, 21 корпус 1 литер а",1974,48,2,9,5888.9,59.93561,30.244245
94,"ул. будапештская, 104 корпус 3 литер а",1999,80,2,11,4956.7,59.832064,30.404496
95,"ул. губина, 6 литер а",1949,12,2,2,685.71,59.896526,30.262867
96,"ул. малая карпатская, 13 литер а",1983,428,6,12,23011.3,59.836843,30.425561
97,"11-я в.о. линия, 24 литер б",1917,8,1,3,994.14,59.939447,30.274761
98,"обводного канала наб., 53 литер в",1916,13,3,2,854.4,59.91521,30.358799
99,"ул. 13-я красноармейская, 28 литер а",1899,14,1,5,1061.78,59.914926,30.29871
100,"пр-кт дачный, 24 корпус 2 литер а",2000,143,3,11,11261.0,59.840948,30.258053
101,"пр-кт малый п.с., 74 литер а",1932,55,5,5,3897.6,59.96435,30.303022
102,"ул. окраинная, 9 литер б",2012,84,3,7,6415.3,59.984422,30.527188
103,"ул. белградская, 46 литер а",1965,134,9,5,6031.43,59.848538,30.369551
104,"пр-кт тихорецкий, 9 корпус 4 литер а",1964,120,6,5,5366.98,60.013834,30.371905
105,"ул. федосеенко, 33 литер а",1961,60,3,5,2571.87,59.975464,30.398082
106,"пр-кт кондратьевский, 26 литер а",1916,25,2,5,1553.92,59.964822,30.38105
107,"ул. двинская, 10 корпус 5 литер а",1996,184,3,19,9586.6,59.906797,30.248476
108,"пр-кт большой сампсониевский, 47 литер а",2008,118,6,8,8547.0,59.970335,30.341542
109,"пр-кт искровский, 15 корпус 2 литер л",1977,244,7,9,14178.15,59.905678,30.464881
110,"ул. верейская, 28 литер а",1876,25,5,6,1645.1,59.915098,30.327232
111,"ул. большая пушкарская, 45 литер а",1904,29,5,4,2665.95,59.963742,30.312113
112,"дор. торфяная, 15 корпус 1 строение 1",2020,443,4,13,16583.2,59.994391,30.25675
113,"ул. геологическая, 75 корпус 14 литер а",1980,54,2,3,2430.3,59.751787,30.072658
114,"ул. ленина, 38 литер а",1934,38,4,5,2341.4,60.083795,30.250417
115,"ул. лени голикова, 98 корпус 2 литер а",1996,80,2,10,4559.0,59.835329,30.250929
116,"ул. бестужевская, 53 литер а",1963,100,5,5,4497.6,59.977683,30.426684
117,"новаторов б-р, 28 литер а",1968,84,2,12,4161.9,59.848036,30.271994
118,"ул. бассейная, 69 литер а",1963,118,6,5,5405.41,59.863631,30.340114
119,"ул. дрезденская, 11 литер а",1969,84,2,12,4147.52,60.012692,30.329019
120,"ул. краснопутиловская, 26 литер а",1958,70,4,5,4357.75,59.870709,30.269695
121,"новосмоленская наб., 1 литер б",1986,190,7,11,10605.2,59.949231,30.229271
122,"ул. ленсовета, 91 литер а",1963,58,3,5,2450.4,59.833864,30.345701
123,"реки фонтанки наб., 32/1 литер а",1850,33,6,5,3735.0,59.937648,30.344372
124,"пр-кт искровский, 40 литер а",2004,154,3,16,9218.7,59.895217,30.477789
125,"ул. малая посадская, 15 литер б",1908,45,4,7,4314.5,59.957368,30.328561
126,"6-я в.о. линия, 17 литер б",1917,40,1,5,2819.4,59.94124,30.28184
127,"ул. димитрова, 41 корпус 1 литер а",2007,197,3,20,11317.7,59.851132,30.417486
128,"ул. гладкова, 14 литер ж",1950,10,1,3,490.6,59.896716,30.269255
129,"пр-кт малый п.с., 7 литер б",1909,10,1,5,961.99,59.954417,30.291793
130,"ул. 6-я жерновская, 9 литер а",2012,45,1,9,3290.1,59.964728,30.494561
131,"ул. турку, 9 корпус 5 литер а",1971,216,6,9,11501.0,59.864751,30.377376
132,"ул. херсонская, 23 корпус 1 литер а",1898,19,3,5,1246.3,59.928469,30.380035
133,"пр-кт загородный, 21-23 литер а",1905,210,24,5,14390.83,59.924975,30.33909
134,"ул. крупской, 12 корпус 1 литер а",1949,2,1,2,553.0,59.888695,30.428068
135,"пр-кт богатырский, 25 корпус 5 литер а",1992,80,2,10,4708.5,60.003475,30.251477
136,"ул. отважных, 2 корпус 2 литер а",2005,68,3,6,4807.1,59.83508,30.172686
137,"ул. зверинская, 26 литер а",1910,12,1,5,661.73,59.953489,30.30074
138,"ул. зины портновой, 34 литер а",1962,69,7,5,3159.2,59.850391,30.25701
139,"ул. гороховая, 41 литер а",1825,32,9,7,3996.1,59.928816,30.321177
140,"ш. петергофское, 84 корпус 9 литер а",2001,85,5,5,6223.7,59.847702,30.10824
141,"ул. седова, 19 литер а",1956,87,7,5,5808.7,59.893037,30.413964
142,"канонерский остров, 13 литер а",1967,70,7,5,3191.59,59.900845,30.216829
143,"новаторов б-р, 21 литер а",1962,48,1,8,1684.3,59.849049,30.263128
144,"ул. алтайская, 4 литер а",1954,6,3,5,3202.14,59.850106,30.319147
145,"саперный пер., 16/36 литер а",1846,74,12,6,8480.7,59.941096,30.359859
146,"пр-кт большевиков, 13 корпус 2 литер в",1973,261,7,9,13900.67,59.910839,30.474286
147,"пр-кт костромской, 57 литер а",1959,60,3,5,2521.6,60.024275,30.314763
148,"ул. шевченко, 6/8 литер а",1955,51,4,5,3929.56,59.930264,30.245764
149,"ул. малая посадская, 6 литер б",1908,23,1,6,1307.2,59.958579,30.320629
150,"пр-кт обуховской обороны, 107 литер б",1917,36,5,6,2851.78,59.894495,30.436772
151,"пр-кт энгельса, 21 литер а",1956,128,7,6,8993.78,60.002845,30.328579
152,"ул. кораблестроителей, 46 корпус 1 литер б",1979,276,4,14,9087.0,59.956516,30.232316
153,"пр-кт энгельса, 93 литер а",2004,795,9,26,36918.41,60.025012,30.321887
154,"ул. кибальчича, 18 литер г",1964,89,6,5,4079.96,59.863378,30.439845
155,"17-я в.о. линия, 30/66 литер а",1898,8,2,3,725.21,59.93914,30.26585
156,"ул. бестужевская, 29 литер а",1940,18,3,3,1491.55,59.982487,30.408251
157,"ул. тамбасова, 4 корпус 2 литер в",1974,251,7,9,12891.4,59.84164,30.162175
158,"ул. большая зеленина, 8 литер а",1901,14,2,4,903.1,59.959877,30.294389
159,"ул. зверинская, 7-9 литер а",1901,58,9,5,4855.34,59.953133,30.295225
160,"ул. александра блока, 10 литер а",1930,56,5,4,3730.8,59.923834,30.277151
161,"ул. белышева, 8 корпус 1 литер о",1978,260,7,9,14623.8,59.910492,30.45658
162,"5-я в.о. линия, 64/13 литер а",1913,62,7,6,7212.0,59.947879,30.276064
163,"пр-кт гражданский, 113 корпус 2 литер а",1971,134,9,5,6417.6,60.029872,30.419722
164,"пр-кт дачный, 13 литер а",1969,84,2,12,4148.0,59.845098,30.247407
165,"ш. петергофское, 76 корпус 15 литер а",2007,8,1,4,646.2,59.843792,30.114915
166,"ул. подольская, 50 литер б",1983,4,1,2,221.8,59.912549,30.328687
167,"ул. 2-я советская, 25/2 литер а",1934,104,7,7,6218.3,59.931093,30.369722
168,"ул. благодатная, 16 литер а",1958,67,5,5,4366.0,59.876003,30.314646
169,"пр-кт большеохтинский, 6 литер а",1967,224,4,9,11946.9,59.950001,30.409275
170,"ул. кибальчича, 14 литер у",1966,45,1,9,1281.42,59.864539,30.438991
171,"пр-кт ленинский, 108 корпус 1 литер а",2008,154,3,12,10879.0,59.852484,30.231912
172,"пр-кт ленинский, 76 корпус 1 литер а",2010,944,12,20,50730.0,59.860184,30.187939
173,"ул. малая пушкарская, 22-24 литер а",1903,19,1,5,875.89,59.959435,30.306445
174,"басков пер., 41/29 литер а",1906,24,4,8,3369.3,59.939203,30.364422
175,"ул. моисеенко, 16 литер а",1877,16,1,4,1050.0,59.937991,30.38379
176,"ул. 5-я красноармейская, 8 литер а",1905,16,3,6,1600.74,59.912995,30.31585
177,"ул. конная, 3/4 литер к",1903,25,1,6,1101.85,59.928929,30.374106
178,"ул. пионерстроя, 14 корпус 2 литер а",1971,100,5,5,4424.0,59.83862,30.131399
179,"ул. тракторная, 10 литер а",1926,11,2,3,808.9,59.899103,30.280906
180,"ул. малая посадская, 6 литер а",1909,37,6,7,3689.35,59.958025,30.320791
181,"ул. херсонская, 6/13 литер а",1879,79,8,4,5549.1,59.929177,30.37928
182,"пр-кт стачек, 79 литер а",1954,138,3,10,9817.43,59.86546,30.259571
183,"ул. ленсовета, 10 литер а",1958,316,13,7,20870.0,59.858968,30.32999
184,"пр-кт культуры, 25 корпус 4 литер а",1999,398,5,17,22060.4,60.04729,30.380017
185,"саперный пер., 13 литер а",1880,38,4,6,4317.0,59.940803,30.359302
186,"ул. гастелло, 9 литер а",1957,69,3,7,4633.5,59.85731,30.323576
187,"пр-кт дальневосточный, 56 литер а",1962,90,6,5,4133.2,59.885322,30.467531
188,"пр-кт ветеранов, 171 корпус 4 строение 1",2017,1210,7,13,39219.2,59.83975,30.111825
189,"пр-кт маршака, 24 корпус 1 строение 1",2016,252,2,20,10643.5,60.027004,30.453068
190,"пр-кт приморский, 45 литер а",1952,24,3,4,1728.5,59.983482,30.280097
191,"пр-кт новоизмайловский, 4 литер а",1960,304,6,9,13663.0,59.873586,30.306948
192,"ул. ломоносова, 20 литер а",1873,64,6,5,7949.92,59.927238,30.340105
193,"ул. пионерстроя, 21 корпус 3 литер а",1973,90,1,16,3699.0,59.840094,30.125991
194,"3-й рабфаковский пер., 5 корпус 1 литер а",1971,32,2,9,661.7,59.852294,30.466489
195,"пр-кт ветеранов, 107 литер а",1968,50,5,5,2432.68,59.834189,30.200623
196,"ул. торжковская, 14 литер а",1963,60,3,5,2571.45,59.990345,30.311817
197,"пр-кт динамо, 26 литер а",1932,12,2,3,697.78,59.968209,30.271653
198,"пр-кт космонавтов, 48 корпус 4 литер а",1964,139,7,5,5051.4,59.850409,30.357891
199,"ул. учительская, 18 корпус 3 литер а",2009,255,3,18,16638.0,60.032915,30.405718
200,"пр-кт тореза, 98 корпус 3 литер а",1964,45,1,10,1973.1,60.018601,30.33096
201,"ул. планерная, 47 корпус 4 литер а",2000,120,3,10,7638.9,60.017454,30.23193
202,"ул. кавалергардская, 18 литер а",1901,24,3,5,1408.6,59.945157,30.38237
203,"пр-кт невский, 93 литер а",1861,39,8,6,3291.3,59.930237,30.365949
204,"ул. почтамтская, 2/9 литер а",1872,37,7,3,993.7,59.932892,30.305412
205,"пр-кт луначарского, 38 литер а",1980,143,4,10,5224.4,60.04716,30.322246
206,"11-я в.о. линия, 4 литер а",1917,21,4,5,2457.5,59.935998,30.279594
207,"ул. бассейная, 79 литер а",1963,118,6,5,5360.0,59.863545,30.345135
208,"ул. подводника кузьмина, 54 литер а",1965,54,1,9,1924.1,59.841816,30.27044
209,"ул. савушкина, 24 литер а",1954,99,9,5,7112.1,59.98512,30.291425
210,"ул. стремянная, 16 литер а",1882,37,2,6,2810.31,59.930967,30.35269
211,"ул. стрельбищенская, 4 литер а",1964,90,6,5,4081.5,59.888726,30.358583
212,"ул. беломорская, 38 литер а",1958,12,2,2,738.7,59.977467,30.516103
213,"1-я в.о. линия, 10 литер б",1917,6,1,3,279.8,59.939947,30.291443
214,"пр-кт металлистов, 75 литер а",1963,100,5,5,4546.3,59.971136,30.404101
215,"ул. орджоникидзе, 59 литер а",1972,97,1,14,4602.0,59.842779,30.361458
216,"ул. антонова-овсеенко, 13 корпус 3 литер б",1969,134,9,5,6276.53,59.90718,30.468645
217,"ул. белградская, 16 литер а",1969,336,7,10,16880.58,59.864923,30.3655
218,"ул. манчестерская, 10 литер д",1969,84,1,12,2609.0,60.012579,30.333331
219,"ул. рубинштейна, 26 литер а",1822,28,4,6,4475.72,59.929357,30.344605
220,"ул. лизы чайкиной, 23 литер а",1903,35,3,5,2351.17,59.954755,30.304163
221,"пр-кт комендантский, 34 корпус 3 литер а",1989,143,4,9,7892.0,60.019914,30.241497
222,"пр-кт большевиков, 8 корпус 1 литер а",1987,300,6,12,17184.7,59.914277,30.476756
223,"ул. тюшина, 18 литер а",1856,6,1,3,335.64,59.917096,30.347543
224,"ул. парашютная, 58 литер а",2015,1033,12,21,45501.7,60.037944,30.243087
225,"ул. крупской, 25 литер а",1955,24,3,4,1875.74,59.889634,30.42822
226,"дор. муринская, 84 литер а",2015,561,7,18,29190.2,60.036987,30.44951
227,"пр-кт загородный, 8 литер а",1833,28,3,5,2601.6,59.926702,30.345899
228,"ул. запорожская, 19 литер г",1962,40,2,5,1619.2,59.85139,30.469345
229,"ул. софьи ковалевской, 14 корпус 4 литер а",1969,156,2,12,6510.5,60.016663,30.410551
230,"горелово, ул. коммунаров, 118 корпус 2 литер а",1991,118,3,11,6552.9,59.786804,30.149644
231,"ул. ткачей, 22 литер а",1960,60,3,5,2533.07,59.891891,30.432811
232,"ул. верейская, 42/8 литер а",1884,15,2,4,1100.8,59.913722,30.328669
233,"ул. беринга, 16 литер а",1961,100,5,5,4161.24,59.939528,30.24332
234,"5-я в.о. линия, 40 литер а",1858,16,3,3,1217.8,59.942836,30.280942
235,"ул. краснопутиловская, 106 литер а",1973,79,4,5,3318.5,59.845523,30.317764
236,"ул. танкиста хрустицкого, 58 литер а",1960,18,2,3,757.7,59.838069,30.251576
237,"ул. черкасова, 8 корпус 1 литер а",1975,215,6,9,11629.39,60.028182,30.423846
238,"ул. таврическая, 29 литер б",1845,16,1,4,1055.81,59.945617,30.379406
239,"ул. сердобольская, 11 литер а",1961,120,6,5,5052.9,59.992834,30.322093
240,"пр-кт аптекарский, 8а литер а",1911,8,1,6,480.3,59.971384,30.319318
241,"ул. архивная, 11 корпус 2 строение 1",2019,228,1,24,11064.3,59.903544,30.450723
242,"ул. коломенская, 7 литер а",1890,86,8,6,8530.65,59.925615,30.354541
243,"климов пер., 7 литер а",1840,11,2,4,767.08,59.91756,30.294578
244,"ул. купчинская, 13 корпус 1 литер а",1973,260,7,10,13803.8,59.840605,30.384275
245,"ул. яхтенная, 9 корпус 3 литер а",1992,83,1,16,4286.5,59.988955,30.220422
246,"ул. 3-я красноармейская, 4 литер а",1880,52,5,6,1843.81,59.914457,30.316443
247,"ул. курляндская, 23 литер б",1892,12,1,3,206.2,59.912386,30.280798
248,"ул. подвойского, 17 корпус 2 литер б",1974,261,7,9,8831.0,59.911498,30.473585
249,"реки мойки наб., 102 строение 1",2019,24,2,8,3671.5,59.927509,30.293105
250,"пр-кт витебский, 51 корпус 3 литер а",1970,100,5,5,4229.9,59.848461,30.3587
251,"21-я в.о. линия, 16 корпус 4 литер г",1932,45,5,5,2670.0,59.936242,30.261206
252,"ул. танкиста хрустицкого, 28 литер а",1959,18,2,3,760.3,59.839755,30.25083
253,"пр-кт пархоменко, 5 литер а",1977,515,3,16,10193.7,59.999674,30.333493
254,"шишмаревский пер., 12/2 литер а",1951,16,1,2,887.2,59.985966,30.284328
255,"пр-кт славы, 30 корпус 3 литер а",1965,90,6,5,4006.9,59.860062,30.384877
256,"ул. академика павлова, 6 корпус 6 строение 1",2017,101,1,15,5964.1,59.975648,30.315904
257,"пр-кт богатырский, 25 корпус 4 литер а",1992,169,4,10,9011.4,60.003057,30.252878
258,"ул. лахтинская, 22 литер а",1913,34,2,7,2450.39,59.963007,30.299079
259,"ш. московское, 256 корпус 8 строение 1",2021,144,4,10,5788.7,59.756913,30.462868
260,"ул. исполкомская, 5 литер а",1910,49,4,7,4663.71,59.926886,30.380098
261,"пр-кт московский, 172 литер а",1953,148,6,7,9588.61,59.877398,30.320953
262,"ул. турку, 28 корпус 1 литер а",1966,100,5,5,4492.08,59.868062,30.40499
263,"ул. шепетовская, 1 литер а",1985,36,1,9,1702.6,59.946793,30.414979
264,"ул. 5-я красноармейская, 16 литер а",1880,8,1,4,558.3,59.912977,30.313757
265,"пр-кт витебский, 85 корпус 3 литер а",2009,225,2,16,12596.0,59.838091,30.369039
266,"ш. пулковское, 13 корпус 5 литер а",1978,119,2,12,6749.79,59.832634,30.315248
267,"ул. турку, 22 корпус 5 литер а",1966,100,5,5,4511.4,59.870872,30.400705
268,"пр-кт маршала блюхера, 54 литер а",1964,224,8,7,10199.5,59.974932,30.434428
269,"пр-кт шаумяна, 63 литер а",1960,80,4,5,3548.5,59.925277,30.422471
270,"ул. замшина, 39 корпус 1 литер а",1964,100,5,5,4553.26,59.984386,30.411566
271,"пр-кт ветеранов, 42 литер а",1966,70,7,5,3185.2,59.840659,30.244515
272,"ул. гатчинская, 22 литер а",1911,43,7,6,4345.88,59.962341,30.298378
273,"ул. боровая, 42 литер а",1875,19,2,4,1769.01,59.915224,30.345063
274,"реки фонтанки наб., 179 литер а",1912,46,6,7,3040.89,59.916509,30.289574
275,"ул. добровольцев, 26 литер а",1970,139,7,5,5427.0,59.836934,30.16646
276,"ул. зверинская, 36 литер а",1909,70,7,6,5090.18,59.952732,30.30216
277,"ул. беговая, 1 корпус 1 литер а",1991,367,10,10,19913.2,59.985237,30.204711
278,"пр-кт кондратьевский, 39 литер а",1961,100,7,5,6197.78,59.971695,30.388173
279,"ул. казначейская, 13 литер б",1798,15,2,4,1032.9,59.926729,30.31037
280,"ул. купчинская, 8 корпус 1 литер а",1975,752,20,10,36643.31,59.840542,30.385649
281,"ул. боровая, 12 литер а",1867,7,1,3,819.04,59.921317,30.348288
282,"ул. бабушкина, 95 корпус 3 литер э",1960,60,4,5,2753.4,59.869585,30.447103
283,"ул. маршала захарова, 30 корпус 1 литер б",1988,82,1,14,4155.9,59.854562,30.191981
284,"пр-кт владимирский, 8 литер б",1886,15,1,4,804.5,59.930764,30.349645
285,"ул. народная, 94 литер и",1962,90,6,5,4144.76,59.885589,30.484904
286,"ул. 4-я советская, 18/9 литер а",1859,54,5,5,3774.8,59.933528,30.370108
287,"реки фонтанки наб., 38 литер д",1847,5,1,4,485.0,59.934051,30.345881
288,"ул. ремесленная, 5 литер а",1914,9,2,7,2110.41,59.95998,30.269228
289,"актерский проезд, 6 литер а",2014,342,2,27,24048.7,60.043696,30.370863
290,"пр-кт гражданский, 122 корпус 6 литер а",2003,79,2,9,4889.7,60.037984,30.420441
291,"ш. революции, 51 литер а",1958,10,4,3,851.65,59.960269,30.449771
292,"обводного канала наб., 132 литер а",1904,245,4,6,6907.71,59.908529,30.291488
293,"канала грибоедова наб., 15 литер а",1798,32,5,4,2968.7,59.936697,30.326414
294,"ул. косинова, 14 корпус 2 литер а",1929,60,6,5,3938.48,59.896192,30.273791
295,"ул. тельмана, 43 корпус 4 литер а",1986,214,6,9,11900.36,59.888952,30.485075
296,"ул. тамбовская, 13 литер а",1901,42,5,6,3165.92,59.913041,30.353759
297,"ул. маршала захарова, 60 литер а",1985,808,10,16,43895.5,59.850436,30.21187
298,"ул. ординарная, 10 литер а",1905,10,3,6,1292.6,59.9653,30.307586
299,"ул. боровая, 88 литер а",1903,13,1,6,1549.53,59.910681,30.340949
300,"ш. петергофское, 13 корпус 2 литер а",1981,143,3,12,7319.5,59.848321,30.190023
301,"пр-кт пискаревский, 37 литер а",1969,156,1,12,6588.7,59.977832,30.420675
302,"ул. дибуновская, 69 литер а",1961,80,4,5,3434.6,59.985386,30.257594
303,"тер. большая каменка, 2а литер а",1968,2,1,1,78.6,60.045066,30.174887
304,"поликарпова аллея, 5 литер а",1976,680,19,9,33953.0,60.008878,30.289485
305,"морская наб., 29 литер а",1999,114,3,15,8613.9,59.958453,30.21558
306,"пр-кт стачек, 8а литер а",1954,9,3,4,3005.64,59.899166,30.276881
307,"пр-кт шаумяна, 47 литер а",1961,80,4,5,3558.64,59.928257,30.417135
308,"ул. пионерская, 48 литер а",1901,13,1,4,574.06,59.963881,30.274716
309,"ул. бухарестская, 31 корпус 4 литер а",1967,118,6,5,5400.15,59.865343,30.381553
310,"пр-кт большой п.с., 16/1 литер а",1901,27,5,5,3888.72,59.954912,30.29403
311,"ул. будапештская, 38 корпус 7 литер а",1966,90,9,5,6019.38,59.860988,30.383017
312,"ул. малая подьяческая, 6 литер б",1883,12,1,6,901.2,59.926179,30.302645
313,"ул. верности, 40 литер а",1966,134,9,5,5996.99,60.001505,30.425894
314,"пр-кт лиговский, 76 литер б",1882,6,1,4,612.03,59.921737,30.356041
315,"пр-кт индустриальный, 36 литер а",1981,359,5,12,18325.4,59.952466,30.46895
316,"ул. васенко, 5/15 литер а",1961,80,4,5,3453.75,59.970006,30.392108
317,"ул. верейская, 26 литер а",1869,15,1,5,962.1,59.915292,30.327034
318,"ул. краснопутиловская, 14/12 литер а",1957,96,7,5,6701.34,59.872593,30.265733
319,"пр-кт комендантский, 28 корпус 1 литер а",1993,254,2,17,13579.6,60.014005,30.250516
320,"пр-кт шлиссельбургский, 45 литер а",1986,336,4,14,16828.81,59.832294,30.515016
321,"пр-кт шаумяна, 77 литер а",1960,80,4,5,3569.93,59.923126,30.423684
322,"ул. казанская, 58 литер а",2006,39,2,8,3788.6,59.9275,30.306615
323,"ул. мира, 1/9 литер а",1898,32,2,5,2364.0,59.958953,30.313191
324,"пр-кт сизова, 14 литер а",1993,176,3,12,10940.7,60.005711,30.271725
325,"пр-кт славы, 30 корпус 5 литер а",1965,90,6,5,4010.0,59.860179,30.386305
326,"пр-кт энгельса, 14 литер б",1947,7,4,2,457.7,60.000839,30.328049
327,"ул. архивная, 7 строение 1",2019,598,3,24,29307.6,59.902298,30.44616
328,"ул. рубинштейна, 26 литер б",1822,11,1,5,1402.09,59.92915,30.345486
329,"ш. рябовское, 123 корпус 2 литер а",1992,60,3,5,2948.7,59.985939,30.522867
330,"ул. межозерная, 9 литер а",2008,18,6,3,2723.3,60.046625,30.303615
331,"пр-кт большой п.с., 63 литер б",1897,19,2,5,1298.84,59.963426,30.309409
332,"пр-кт константиновский, 3 литер а",1916,10,1,3,750.9,59.971821,30.274465
333,"ул. наличная, 37 корпус 4 литер г",1970,80,4,5,3476.15,59.942142,30.236331
334,"15-я в.о. линия, 62 литер а",1912,56,4,6,3783.9,59.943174,30.264493
335,"ул. челябинская, 55 литер а",1960,48,3,4,2039.9,59.984746,30.502556
336,"ш. выборгское, 17 корпус 4 литер а",2008,197,1,23,10237.1,60.054981,30.311323
337,"пр-кт энтузиастов, 18 корпус 1 литер а",1979,492,13,9,24894.0,59.945621,30.465851
338,"пр-кт кондратьевский, 66 корпус 1 литер а",2006,179,1,17,9775.8,59.98205,30.3958
339,"ул. седова, 38 литер в",1954,32,4,4,2408.96,59.89069,30.419201
340,"пр-кт большой п.с., 13/4 литер а",1901,31,7,5,4265.92,59.955291,30.295485
341,"ул. 4-я красноармейская, 13 литер а",1852,6,2,4,589.4,59.914001,30.31241
342,"12-я в.о. линия, 35 литер а",1917,75,5,5,5465.6,59.942196,30.269991
343,"ул. бабушкина, 89 корпус 3 литер у",1961,80,4,5,3505.21,59.870267,30.446816
344,"ул. социалистическая, 6 литер а",1873,60,6,4,4414.9,59.923946,30.340742
345,"ул. ленсовета, 13 литер а",1962,40,2,5,1863.0,59.854517,30.329154
346,"ул. задворная, 8 литер а",1950,8,1,3,457.1,59.897564,30.359526
347,"пр-кт гражданский, 123 корпус 1 литер а",1971,251,7,9,12805.5,60.037081,30.423729
348,"ул. котина, 6 корпус 1 литер а",1991,177,3,12,10954.9,59.857274,30.210828
349,"пр-кт средний в.о., 51 литер в",1953,1281,2,6,1281.0,59.941349,30.271707
350,"пр-кт средний в.о., 75 литер а",1917,14,2,3,891.1,59.939068,30.263424
351,"пр-кт малоохтинский, 86а корпус 2 литер а",1954,51,4,5,3426.5,59.939032,30.406454
352,"ул. стремянная, 5 литер а",1916,15,1,4,1371.8,59.930994,30.349932
353,"пр-кт энгельса, 43 литер в",1951,26,3,4,2008.9,60.013213,30.324195
354,"пр-кт новочеркасский, 27 корпус 2 литер а",1962,80,4,5,3473.4,59.93493,30.405071
355,"пр-кт кондратьевский, 41 корпус 1 литер а",1972,18,1,5,773.59,59.972001,30.38847
356,"ул. авангардная, 51 литер а",1972,39,2,5,2529.7,59.826149,30.18378
357,"пр-кт гражданский, 107 корпус 2 литер а",1970,90,6,5,4330.08,60.027283,30.415357
358,"ул. кубинская, 70 корпус 3 литер а",1968,71,7,5,3127.28,59.850586,30.294434
359,"ул. петра смородина, 18 литер а",1968,134,9,5,6250.0,59.958724,30.443501
360,"пр-кт невский, 182 литер а",1890,30,5,6,1695.7,59.924596,30.383421
361,"ул. аэродромная, 7 корпус 3 литер а",1976,28,1,16,5658.57,59.998256,30.293096
362,"ул. подольская, 19 литер а",1899,20,3,5,1645.2,59.915855,30.324034
363,"ул. шевченко, 33 литер а",1960,40,2,5,1601.8,59.939582,30.240931
364,"ул. наличная, 11 литер а",1954,38,3,7,2266.79,59.931972,30.236861
365,"ул. большая зеленина, 21 литер б",1902,10,1,5,556.3,59.963165,30.2905
366,"9-я в.о. линия, 26 литер а",1900,30,4,4,1945.91,59.940222,30.277456
367,"ул. типанова, 4 литер а",1958,97,5,7,7407.0,59.850676,30.326576
368,"ул. антонова-овсеенко, 1 корпус 2 литер а",1979,235,2,15,5687.12,59.904812,30.458026
369,"пр-кт волковский, 18 литер а",1950,7,1,3,381.6,59.898715,30.359652
370,"пр-кт большеохтинский, 25/5 литер а",1897,30,3,4,2172.39,59.953317,30.410721
371,"пр-кт малый п.с., 20 литер а",1910,21,4,5,1665.41,59.955701,30.292386
372,"пр-кт средний в.о., 19 литер а",1917,32,6,4,2436.2,59.944337,30.282011
373,"ул. трефолева, 22/25 литер а",1968,156,5,6,7548.75,59.890681,30.26974
374,"пр-кт художников, 19 корпус 1 литер а",1974,208,4,9,9581.1,60.041179,30.350301
375,"ул. крупской, 49 литер а",1961,60,3,5,2538.33,59.887878,30.418761
376,"ул. марата, 35 литер а",1864,37,3,6,3441.35,59.925768,30.351558
377,"пр-кт энгельса, 109 корпус 3 литер а",1980,59,1,12,3264.5,60.032492,30.323674
378,"ул. подольская, 26 литер б",1900,6,1,5,208.0,59.914904,30.326127
379,"ул. камышинская, 2 литер а",1957,8,2,2,439.2,59.971317,30.512958
380,"пр-кт науки, 5 литер а",1964,80,4,5,2333.0,60.016208,30.3723
381,"ш. петергофское, 76 корпус 1 литер а",1962,18,2,3,802.9,59.846825,30.118733
382,"пр-кт юрия гагарина, 20 корпус 4 литер а",1963,118,6,5,5388.9,59.858444,30.341174
383,"пр-кт большевиков, 57 корпус 1 литер у",1963,90,6,5,4094.56,59.882997,30.486943
384,"серебристый б-р, 26 литер а",1976,537,15,9,26835.3,60.009494,30.281364
385,"ул. сибирская, 16 литер а",2013,186,2,15,9876.3,59.984908,30.407442
386,"пр-кт лиговский, 83 литер а",1850,7,1,4,979.49,59.924609,30.35649
387,"ул. воронежская, 15-17 литер а",1916,37,1,5,1811.26,59.916568,30.347848
388,"пр-кт большой п.с., 63 литер а",1904,15,2,6,1286.8,59.96362,30.308987
389,"ул. железноводская, 44 литер а",1966,45,2,9,1976.3,59.950483,30.242413
390,"пр-кт дачный, 9 корпус 5 литер а",1966,50,5,5,2446.46,59.845261,30.24182
391,"ул. пестеля, 23 литер а",1916,15,3,3,1071.6,59.94262,30.347156
392,"пр-кт ветеранов, 36 корпус 2 литер а",2011,128,1,28,8743.6,59.842956,30.24756
393,"пр-кт лиговский, 101 литер б",1916,8,1,4,435.0,59.922341,30.354127
394,"ул. большая морская, 27 литер а",1835,34,5,5,3503.51,59.933992,30.312428
395,"20-я в.о. линия, 13 литер б",1904,24,2,5,1923.53,59.933429,30.267826
396,"ул. партизана германа, 22 корпус 2 литер а",1970,251,7,10,13304.0,59.829405,30.17954
397,"9-я в.о. линия, 16 литер а",1917,23,3,5,2167.5,59.939212,30.279172
398,"пр-кт северный, 91 корпус 3 литер а",1966,100,5,5,4527.03,60.015039,30.427753
399,"пр-кт 2-й муринский, 8 корпус 2 литер а",1968,45,1,9,1971.66,60.003876,30.334472
400,"ул. алтайская, 9 литер а",1959,39,2,5,2365.9,59.847955,30.325193
401,"ул. заповедная, 43 литер а",1955,8,1,2,379.2,60.045187,30.273108
402,"пр-кт новочеркасский, 27 корпус 1 литер а",1961,64,4,5,2715.12,59.934718,30.406912
403,"ул. пушкинская, 13 литер а",1877,62,4,5,4144.7,59.928496,30.356211
404,"ул. гороховая, 50 литер б",1916,10,2,4,763.0,59.926467,30.327007
405,"учебный пер., 2 литер а",2002,464,5,18,35412.4,60.039436,30.333466
406,"пр-кт обуховской обороны, 269 корпус 2 литер а",1984,210,7,9,14134.4,59.854888,30.476972
407,"ул. будапештская, 43 корпус 1 литер а",1965,134,9,5,5982.7,59.854806,30.380143
408,"басков пер., 32 литер б",1910,36,1,6,1647.9,59.939447,30.36462
409,"ул. бармалеева, 21 литер а",1911,9,1,6,570.5,59.965286,30.303768
410,"ул. козлова, 41 корпус 2 литер а",1968,50,5,5,2463.91,59.830472,30.22574
411,"ипподромный пер., 1 корпус 2 строение 1",2021,511,7,18,27301.2,60.000294,30.307298
412,"ул. новостроек, 17 литер а",1958,75,5,5,4759.81,59.873826,30.266263
413,"ул. пасторова, 7 литер а",1900,26,2,5,2028.92,59.920176,30.290527
414,"ул. галерная, 32 литер б",1860,6,1,3,330.9,59.931517,30.289943
415,"реки карповки наб., 36 литер а",1912,26,1,7,2567.74,59.969628,30.299366
416,"пр-кт кима, 11 литер а",1960,70,5,5,4785.48,59.953065,30.24518
417,"ул. куйбышева, 10 литер а",1912,92,9,6,5875.79,59.955007,30.326926
418,"ул. стойкости, 37 литер а",1972,72,1,13,2770.2,59.827808,30.197147
419,"пр-кт науки, 37 литер а",1965,139,7,5,5041.0,60.008468,30.410524
420,"ул. червонного казачества, 46 литер а",1962,48,1,8,1676.3,59.867173,30.279226
421,"ул. 4-я советская, 14 литер б",1851,6,1,4,378.3,59.934245,30.368994
422,"ул. большая морская, 55 литер а",1917,2,4,5,157.7,59.931287,30.302339
423,"ул. большая озерная, 70 литер а",2011,55,5,5,7200.0,60.040456,30.303435
424,"пр-кт обуховской обороны, 251 литер а",1906,12,1,4,979.34,59.860744,30.477834
425,"ул. губина, 1/32 литер а",1951,15,3,2,809.1,59.896684,30.26143
426,"реки фонтанки наб., 45 литер а",1852,39,4,4,2852.32,59.930372,30.338874
427,"ул. балтийская, 24 литер а",1899,8,1,3,676.94,59.898891,30.284014
428,"поварской пер., 5 литер а",1894,22,2,5,1944.79,59.930061,30.351989
429,"пр-кт богатырский, 32 корпус 1 литер а",2006,252,3,16,14352.5,60.002404,30.241083
430,"ул. губина, 13 корпус 1 литер а",1949,10,2,2,560.0,59.894405,30.262445
431,"ул. белы куна, 18 корпус 3 литер а",1970,45,1,9,1972.7,59.87509,30.382586
432,"ул. декабристов, 36/1 литер а",1843,58,7,5,3997.25,59.925493,30.292593
433,"ул. гончарная, 14 литер а",1904,6,3,6,2160.7,59.929308,30.366533
434,"ул. большая пушкарская, 26 литер б",1900,7,1,4,732.9,59.958805,30.303274
435,"дор. кушелевская, 3 корпус 7 литер а",2016,182,1,24,10117.8,59.987465,30.371761
436,"новаторов б-р, 56 литер а",1964,70,7,5,3178.8,59.843946,30.26788
437,"ул. брянцева, 13 корпус 1 литер а",2014,1038,7,26,54248.7,60.039768,30.407505
438,"15-я в.о. линия, 50 литер б",1917,2,1,2,206.1,59.941889,30.265697
439,"ул. крупской, 15 литер а",1958,59,4,5,3556.13,59.891408,30.431993
440,"ул. купчинская, 10 корпус 3 литер а",1973,251,7,9,13430.4,59.840112,30.389081
441,"реки пряжки наб., 40 литер а",1911,10,2,5,942.01,59.921705,30.279774
442,"ул. декабристов, 37 литер а",1828,32,4,6,2322.14,59.925236,30.289422
443,"ул. турку, 15 литер а",1970,84,1,12,4126.5,59.865655,30.388793
444,"пр-кт гражданский, 113 корпус 3 литер а",2010,286,1,22,16720.6,60.031175,30.417459
445,"ул. дубровская, 4 литер а",1948,8,1,3,376.1,59.899915,30.367656
446,"ул. морской пехоты, 8 корпус 1 литер а",1975,198,5,9,6303.0,59.861869,30.24756
447,"ул. подольская, 41 литер б",1898,3,1,3,77.4,59.912788,30.326881
448,"ул. подрезова, 5 литер а",1912,37,2,6,2096.4,59.963841,30.305789
449,"ул. русановская, 19 корпус 3 литер а",2015,578,5,24,23631.2,59.863649,30.515078
450,"пр-кт невский, 87/2 литер а",1867,19,5,4,1128.59,59.930543,30.363784
451,"пр-кт солидарности, 7 корпус 1 литер б",1972,324,9,9,17725.0,59.923685,30.489297
452,"ул. тимуровская, 26 корпус 2 литер а",1971,251,7,9,12917.43,60.043875,30.410281
453,"ул. промышленная, 16 литер в",1948,29,1,2,536.49,59.898318,30.269299
454,"пр-кт стачек, 93 литер а",1976,66,1,12,3754.3,59.86008,30.252222
455,"11-я в.о. линия, 32/44 литер а",1900,26,2,5,1377.6,59.94129,30.273566
456,"ул. генерала симоняка, 11 литер а",1969,79,4,5,3501.89,59.829346,30.202573
457,"ул. уточкина, 5 литер а",1987,253,7,9,13314.3,60.010794,30.263712
458,"ул. 5-я советская, 47 литер б",1899,16,1,5,800.4,59.932302,30.375049
459,"ул. ивана фомина, 3 литер а",1983,110,1,16,5673.14,60.045232,30.343824
460,"ул. партизана германа, 13 литер а",2001,128,4,8,9017.2,59.838968,30.173809
461,"обводного канала наб., 147-149 литер б",1862,10,1,5,941.85,59.909405,30.311799
462,"ул. пушкинская, 16 литер а",1916,50,5,5,4138.44,59.928492,30.356939
463,"ул. херсонская, 3 литер а",1903,52,6,6,3242.98,59.929736,30.376468
464,"ул. дибуновская, 19 литер а",1949,8,1,2,622.1,59.985876,30.276926
465,"ул. марата, 52 литер а",1877,22,3,5,2732.97,59.923252,30.350795
466,"ул. стремянная, 14 литер а",1837,12,1,4,1360.46,59.931039,30.35207
467,"ул. подольская, 40 литер а",1881,7,2,5,691.0,59.913374,30.327367
468,"пр-кт институтский, 1 литер а",1965,99,5,5,3360.99,59.996358,30.346069
469,"ул. кузнецовская, 6 литер а",1960,80,4,5,3492.0,59.872344,30.299276
470,"ул. тимуровская, 14 литер а",1972,90,6,5,4293.57,60.044846,30.401082
471,"19-я в.о. линия, 12 литер а",1881,29,5,5,2588.24,59.933722,30.268787
472,"ул. бурцева, 10 литер а",1968,70,7,5,3174.12,59.836432,30.205393
473,"горелово, ш. красносельское, 54 корпус 6 литер а",2012,551,5,16,28665.7,59.793487,30.15083
474,"ул. типанова, 9 литер а",1960,60,3,5,2552.3,59.853437,30.331193
475,"ул. краснопутиловская, 6 литер а",1959,60,4,5,3697.84,59.875641,30.261718
476,"ул. ленсовета, 5 литер а",1953,10,3,5,3426.7,59.859542,30.328256
477,"ул. беринга, 18 литер а",1959,40,2,5,2363.28,59.940091,30.242628
478,"ул. руднева, 9 корпус 2 литер а",1973,252,7,9,12798.49,60.041606,30.36515
479,"пр-кт ветеранов, 46 литер а",1968,45,1,9,1995.69,59.841116,30.242907
480,"поэтический б-р, 5 литер а",1974,179,5,9,9742.8,60.043768,30.346096
481,"ул. донская, 24 литер а",1902,8,2,5,575.9,59.941146,30.2662
482,"ул. краснопутиловская, 47 литер а",1960,50,5,5,2434.0,59.867213,30.272974
483,"пр-кт приморский, 169 литер а",1993,176,3,12,9377.7,59.989265,30.190733
484,"ул. галерная, 28 литер а",1798,10,1,3,747.7,59.931368,30.291039
485,"пр-кт средний в.о., 96 литер а",1959,79,4,5,3919.16,59.932369,30.244156
486,"ул. 2-я алексеевская, 7 литер а",2003,176,7,10,14620.8,60.019451,30.286188
487,"пр-кт новоизмайловский, 20 корпус 4 литер а",1961,99,5,5,4472.03,59.862786,30.309553
488,"ул. гороховая, 45 литер б",1756,15,8,3,461.4,59.927355,30.321429
489,"ул. володи ермака, 19 литер а",1872,7,1,4,328.76,59.920131,30.28343
490,"ул. савушкина, 115 корпус 1 литер а",1990,260,10,9,14702.2,59.985251,30.234589
491,"ул. лени голикова, 19 литер а",1967,50,5,5,2459.05,59.8457,30.230151
492,"21-я в.о. линия, 16 корпус 1 литер б",1930,70,7,5,4844.82,59.936453,30.262104
493,"ул. купчинская, 17 корпус 2 литер а",1974,287,8,9,11636.95,59.83801,30.384805
494,"ул. андреевская, 7 литер а",1949,18,2,4,968.3,59.900128,30.368914
495,"15-я в.о. линия, 46 литер а",1917,12,1,4,813.9,59.941344,30.26603
496,"ул. некрасова, 25 литер а",1854,27,4,4,3006.0,59.938613,30.35914
497,"ул. кронштадтская, 6 литер а",1960,100,5,5,4181.18,59.875854,30.254855
498,"ул. коллонтай, 27 корпус 3 литер ф",1974,179,5,9,9790.15,59.919617,30.47902
499,"пр-кт волковский, 24 литер а",1912,6,1,3,409.9,59.898133,30.358403
500,"новаторов б-р, 5 литер а",1964,54,1,9,1923.5,59.853252,30.265068
501,"пр-кт маршала блюхера, 12 литер вп",1990,53,2,5,2394.2,59.982158,30.379298
502,"ул. маршала захарова, 29 корпус 3 литер а",1978,71,2,9,4080.1,59.849523,30.205124
503,"пр-кт гражданский, 29 литер а",1963,100,5,5,4364.68,60.007303,30.392683
504,"ул. наличная, 3/21 литер а",1953,102,7,9,7155.43,59.929921,30.237778
505,"ул. купчинская, 19 корпус 1 литер а",1974,179,5,9,9857.4,59.835528,30.389386
506,"пр-кт авиаконструкторов, 13 литер а",1987,615,17,9,34150.2,60.012228,30.249114
507,"ул. почтамтская, 8 литер а",1756,24,4,5,2268.4,59.932414,30.303678
508,"ул. савушкина, 46 литер а",1950,17,2,5,1077.0,59.984557,30.281957
509,"ул. большая московская, 7 литер б",1879,9,1,5,713.68,59.926526,30.345935
510,"ул. гороховая, 42 литер а",1870,19,3,4,1583.05,59.927234,30.324222
511,"ул. шаврова, 25 корпус 1 литер а",1989,158,2,16,9719.1,60.024666,30.254262
512,"пр-кт просвещения, 53 корпус 1 литер а",1997,647,13,15,38727.0,60.042923,30.380843
513,"ул. омская, 4 литер а",1960,60,3,5,2515.4,59.992353,30.318195
514,"пр-кт 2-й муринский, 34 корпус 1 литер б",1964,168,7,7,9792.2,60.000686,30.355484
515,"ул. авангардная, 3 литер а",1969,231,4,9,11310.0,59.840894,30.177995
516,"ул. лизы чайкиной, 20 литер а",1999,29,1,7,2688.2,59.955205,30.303435
517,"пр-кт кузнецова, 32 литер а",1981,299,5,15,14667.0,59.848986,30.185891
518,"ул. лужская, 12 литер а",1970,105,7,5,3729.3,60.026064,30.42734
519,"пр-кт невский, 3 литер а",1839,23,4,5,3757.24,59.936787,30.312643
520,"ул. капитанская, 4 литер а",2004,712,13,23,54985.1,59.954773,30.214808
521,"ул. школьная, 58 литер а",1964,80,4,5,3411.8,59.986479,30.266021
522,"ул. народная, 33 литер о",1962,63,4,5,2789.66,59.88111,30.468815
523,"ул. демьяна бедного, 4 корпус 1 литер а",1972,134,9,5,6263.23,60.035985,30.378283
524,"ул. окраинная, 9 литер д",2012,56,2,7,4332.0,59.983513,30.526029
525,"пр-кт индустриальный, 35 корпус 1 литер а",1987,440,11,13,24755.9,59.954232,30.469866
526,"пр-кт добролюбова, 21а литер а",1908,30,4,5,2801.25,59.950276,30.298324
527,"пр-кт художников, 13 корпус 4 литер а",1978,110,1,16,5594.0,60.036609,30.350633
528,"ул. кавалергардская, 4 литер е",1917,13,1,4,806.65,59.943327,30.381804
529,"ул. колокольная, 10 литер а",1916,21,3,4,1551.43,59.92874,30.350965
530,"ул. черняховского, 35/7 литер а",1901,59,4,5,4540.85,59.918435,30.358152
531,"пр-кт косыгина, 13 литер а",1985,34,2,12,11716.6,59.942728,30.473064
532,"пр-кт пятилеток, 13 корпус 3 литер а",1992,78,2,10,4509.9,59.925177,30.455251
533,"ул. байконурская, 7 корпус 1 литер в",1974,216,6,9,11509.8,60.001289,30.27751
534,"пр-кт меншиковский, 15 корпус 1 литер а",1967,139,7,5,6878.48,59.996115,30.431472
535,"ул. серпуховская, 9 литер а",1891,7,1,4,398.3,59.916072,30.322138
536,"пр-кт старо-петергофский, 9б литер а",1907,10,2,5,882.3,59.913853,30.277483
537,"пр-кт невский, 95 литер а",1912,13,4,8,1939.8,59.930182,30.366479
538,"ул. ждановская, 1/2 литер а",1890,24,1,5,1358.4,59.954417,30.286655
539,"ул. невзоровой, 6 литер а",1970,89,5,5,4641.67,59.890798,30.415428
540,"ул. морской пехоты, 8 корпус 2 литер а",1975,179,5,9,6320.2,59.862519,30.246635
541,"пр-кт большой в.о., 99 литер б",1911,20,1,6,1198.51,59.927495,30.241667
542,"ул. отечественная, 4 корпус 2 литер а",1958,24,2,3,1236.1,59.959458,30.485533
543,"горелово, ул. коммунаров, 190",2014,704,9,16,35807.2,59.79522,30.161142
544,"ул. радищева, 37 литер б",1828,17,3,2,1033.4,59.941416,30.364045
545,"ул. седова, 58 литер а",1988,13,2,14,5018.0,59.884713,30.424753
546,"1-я в.о. линия, 14 литер а",1917,2,1,2,221.31,59.940389,30.29138
547,"пр-кт большеохтинский, 35 корпус 2 литер б",1952,5,2,4,1917.7,59.956683,30.41188
548,"ул. воронежская, 86 литер а",1902,25,1,5,1673.9,59.911462,30.345027
549,"ул. фурштатская, 37 литер а",1895,23,4,3,1959.2,59.944882,30.364431
550,"почтамтский пер., 2 литер а",1904,34,3,6,3203.15,59.932901,30.301387
551,"ул. большая зеленина, 13 литер а",1899,201,16,5,14046.1,59.961242,30.293051
552,"13-я в.о. линия, 58-60 литер г",1896,6,1,3,330.3,59.943638,30.266236
553,"пр-кт вознесенский, 25 литер а",1917,8,3,6,789.6,59.92612,30.307855
554,"ул. зайцева, 22/13 литер а",1959,99,7,5,6370.3,59.877064,30.271339
555,"ул. фрунзе, 23 литер а",1958,319,13,7,21036.0,59.861575,30.33034
556,"пр-кт ветеранов, 75 корпус 4 литер а",2008,95,1,18,5077.3,59.83947,30.227303
557,"пр-кт луначарского, 21 корпус 1 литер а",2004,192,3,15,12043.3,60.041094,30.339045
558,"ул. 4-я советская, 4/9 литер б",1901,15,2,5,1297.3,59.934682,30.366776
559,"пр-кт рижский, 30 литер а",1899,64,2,4,1796.2,59.913474,30.287661
560,"пр-кт московский, 172 корпус 6 литер а",1953,45,3,6,2668.7,59.8771,30.323513
561,"пр-кт большой в.о., 101 литер а",1912,70,3,6,4423.57,59.927184,30.241308
562,"ул. достоевского, 38 литер а",1894,32,4,4,2237.27,59.922724,30.346204
563,"ул. будапештская, 5 корпус 1 литер а",1973,735,20,9,33712.45,59.872954,30.364503
564,"ул. серпуховская, 22 литер а",1900,25,1,6,1281.7,59.91466,30.324366
565,"октябрьская наб., 76 корпус 1 литер а",1950,45,4,8,3547.44,59.873266,30.462671
566,"пр-кт культуры, 26 корпус 5 литер а",1973,90,6,5,4352.51,60.051661,30.375714
567,"пр-кт измайловский, 2 литер а",1799,15,15,4,2094.0,59.916654,30.30808
568,"ул. среднерогатская, 12 корпус 1 строение 1",2018,782,4,18,28560.3,59.824593,30.337419
569,"ул. днепропетровская, 63 литер а",1905,4,1,4,280.24,59.911421,30.357846
570,"реки фонтанки наб., 165 литер а",1873,34,3,5,3375.89,59.916586,30.293374
571,"пр-кт ириновский, 31/48 литер а",1985,310,4,12,16483.5,59.957976,30.477053
572,"ул. ситцевая, 3 корпус 3 литер а",1996,191,6,10,10923.6,59.999017,30.25048
573,"ул. 11-я красноармейская, 16 литер а",1917,17,2,6,1106.2,59.912093,30.301747
574,"ул. дибуновская, 4 литер а",1949,8,8,2,547.7,59.986025,30.283223
575,"ул. русановская, 18 корпус 1 строение 1",2019,835,4,25,33045.4,59.866292,30.511719
576,"ул. 5-я советская, 16 литер а",1904,29,3,6,2229.0,59.935151,30.369524
577,"ул. большая пороховская, 15 корпус 2 литер а",1959,6,1,3,313.57,59.95311,30.413461
578,"ул. ивановская, 15 литер а",1949,42,3,5,2839.43,59.875113,30.440159
579,"ул. маршала казакова, 22 корпус 2 литер а",1990,101,1,17,5499.8,59.858589,30.227007
580,"ул. гранитная, 16 литер а",1958,60,3,5,3834.66,59.920041,30.420234
581,"обводного канала наб., 53 литер а",1916,17,1,4,1442.49,59.914619,30.358601
582,"ул. счастливая, 2 литер а",1964,70,7,5,3193.7,59.846088,30.272093
583,"канала грибоедова наб., 168 литер а",1957,26,1,5,1507.23,59.918805,30.28414
584,"ул. 4-я советская, 41 литер а",1901,23,1,6,1289.4,59.931851,30.373738
585,"пр-кт ветеранов, 52 корпус 1 литер б",2002,161,5,28,16489.2,59.840221,30.240464
586,"ул. марата, 39 литер а",1881,41,4,5,3685.67,59.925209,30.351235
587,"пр-кт маршала жукова, 50 корпус 2 литер а",2007,70,3,7,4940.9,59.843042,30.212319
588,"ул. червонного казачества, 30 литер а",1961,36,1,6,1277.5,59.866034,30.273854
589,"ул. декабристов, 9 литер а",1880,22,3,7,1800.89,59.928631,30.304585
590,"2-я в.о. линия, 39/16 литер а",1917,56,5,5,4196.73,59.944436,30.284373
591,"пр-кт пискаревский, 149 литер а",1958,27,2,3,1347.6,60.00361,30.446753
592,"ул. арсенальная, 72 литер а",1917,6,1,3,240.3,59.967417,30.365859
593,"пр-кт шаумяна, 67 литер а",1960,80,4,5,3589.58,59.924208,30.422229
594,"ул. туристская, 23 корпус 1 литер а",2014,454,2,28,22061.3,60.002778,30.213074
595,"ул. кирилловская, 15/20 литер а",1903,34,3,7,2456.6,59.93594,30.383502
596,"пр-кт авиаконструкторов, 3 корпус 2 литер а",1987,463,12,10,25312.7,60.010839,30.248198
597,"ул. ланская, 6 литер а",1910,18,1,5,1111.2,59.997482,30.322902
598,"пр-кт новоизмайловский, 101 литер а",1989,194,4,7,7846.86,59.854481,30.303804
599,"пр-кт малый п.с., 47 литер а",1912,24,1,7,1564.71,59.960845,30.298423
600,"ул. чапыгина, 5 литер а",1936,71,7,6,4620.25,59.971956,30.310514
601,"ул. донская, 3 литер б",1917,9,2,5,449.7,59.942908,30.262984
602,"ул. 2-я комсомольская, 40 корпус 1 литер а",1972,208,4,9,9774.4,59.830115,30.143778
603,"сиреневый б-р, 2 корпус 1 литер а",1979,590,10,14,33113.76,60.055124,30.349052
604,"ул. турбинная, 35 корпус 2 литер а",2000,95,4,7,5044.88,59.889571,30.267305
605,"пр-кт английский, 30 литер а",1874,52,4,5,3593.8,59.923112,30.285469
606,"пр-кт энтузиастов, 46 корпус 2 литер а",1983,336,4,14,16748.0,59.953453,30.487985
607,"пр-кт ветеранов, 175 корпус 4 строение 1",2019,1297,9,13,42117.7,59.844081,30.108366
608,"пр-кт ленинский, 111 корпус 1 литер а",2007,378,5,23,21398.2,59.851413,30.242512
609,"ул. алтайская, 20/26 литер а",1958,73,5,5,4659.09,59.849722,30.33105
610,"пр-кт маршала жукова, 72 корпус 3 литер а",1969,160,8,5,6920.85,59.829848,30.196455
611,"ул. еремеева, 7 корпус 2 литер а",2016,178,2,16,9339.7,59.919513,30.43547
612,"ул. захарьевская, 23 литер б",1910,23,2,6,2460.19,59.947194,30.357658
613,"ул. васи алексеева, 30 литер а",1960,91,5,5,5656.56,59.876919,30.276684
614,"ул. манчестерская, 10 корпус 2 литер а",2004,168,2,18,15529.8,60.012107,30.333646
615,"ул. малая балканская, 46 литер а",1975,223,6,9,7681.14,59.82557,30.405511
616,"ул. савушкина, 45 литер а",1949,14,2,3,756.4,59.984521,30.275812
617,"ул. фарфоровская, 20 литер а",1930,30,4,4,2049.14,59.879164,30.433386
618,"ул. стойкости, 18 корпус 3 литер а",1977,107,3,9,5620.1,59.825809,30.208879
619,"ул. заозерная, 6 литер а",1912,133,6,6,8635.3,59.907627,30.322947
620,"пр-кт английский, 7/2 литер б",1870,15,1,4,782.3,59.92594,30.282621
621,"пр-кт лиговский, 166 литер а",1888,19,3,8,1609.91,59.911543,30.349375
622,"ул. подвойского, 33 корпус 2 литер т",1971,178,5,9,9786.02,59.915129,30.493564
623,"ул. белы куна, 10 литер а",1967,80,4,5,3522.23,59.873072,30.381517
624,"пр-кт суздальский, 105 корпус 3 литер а",1971,90,6,5,4336.58,60.043134,30.421321
625,"ул. витебская, 4 литер а",1875,8,3,3,806.34,59.920898,30.28122
626,"ул. подольская, 37 литер а",1881,23,2,4,1203.4,59.913659,30.326441
627,"ул. маршала казакова, 68 корпус 1 литер а",2012,1212,22,25,76994.4,59.865817,30.179046
628,"ул. турку, 8 корпус 3 литер а",1966,70,7,5,3173.6,59.868952,30.385479
629,"ул. сердобольская, 43 литер а",1963,234,1,5,3492.1,59.988302,30.314404
630,"ул. гороховая, 36 литер а",1813,76,9,5,6764.0,59.928379,30.322489
631,"прачечный пер., 3 литер а",1843,26,4,5,1694.4,59.929466,30.301118
632,"пр-кт чернышевского, 4 литер а",2011,46,1,10,2789.4,59.94846,30.359778
633,"поликарпова аллея, 4 корпус 1 литер а",1976,28,1,16,5755.39,60.006404,30.293096
634,"ул. композиторов, 29 корпус 3 литер а",1978,324,9,9,16587.53,60.058902,30.319372
635,"6-я в.о. линия, 23 литер а",1917,6,3,4,523.6,59.941781,30.280564
636,"ул. варшавская, 16 литер а",1959,100,5,7,6524.0,59.876698,30.313721
637,"ул. 3-я советская, 18/6 литер а",1864,8,2,2,407.2,59.932951,30.368285
638,"ул. вавиловых, 15 корпус 1 литер а",1968,216,6,9,11129.74,60.022994,30.393797
639,"ул. танкиста хрустицкого, 33 литер а",1966,70,7,5,3385.87,59.834044,30.257352
640,"ул. авангардная, 53 литер а",1970,118,6,5,5421.0,59.825475,30.183744
641,"ул. 7-я советская, 9/20 литер а",1877,60,9,6,6883.4,59.936178,30.371384
642,"пр-кт товарищеский, 3 корпус 2 литер щ",1977,148,1,16,5743.5,59.917867,30.479954
643,"ул. туристская, 4 корпус 1 литер а",2000,186,3,15,12264.5,59.986074,30.200686
644,"моравский пер., 7 корпус 1 литер а",1983,428,6,12,23172.36,59.838783,30.423801
645,"пр-кт энергетиков, 11 корпус 2 строение 1",2017,735,3,23,22123.9,59.939293,30.437024
646,"пр-кт ярославский, 17 литер б",1953,16,2,4,1211.7,60.011711,30.322399
647,"ул. бассейная, 49 литер а",1958,45,3,5,2638.0,59.863328,30.326405
648,"пр-кт стачек, 105 корпус 2 литер г",1978,84,1,16,4875.7,59.856266,30.240257
649,"ул. кораблестроителей, 23 корпус 1 литер б",1975,220,7,10,11884.47,59.94778,30.216532
650,"ул. пионерстроя, 12 литер а",1971,79,4,5,3518.9,59.839398,30.131085
651,"ул. витебская сортировочная, 14 литер а",1952,18,3,3,1229.9,59.888419,30.350732
652,"пр-кт большевиков, 77 корпус 2 литер а",1964,60,4,5,2744.61,59.874128,30.476415
653,"пр-кт каменноостровский, 65 литер а",1910,55,7,9,7054.92,59.973617,30.305573
654,"пр-кт полюстровский, 19 корпус 1 литер а",1963,100,5,5,4565.6,59.965993,30.402771
655,"ул. омская, 15 литер а",1961,60,3,5,2518.9,59.996173,30.317584
656,"ул. планерная, 73 корпус 6 литер а",1995,101,1,17,6404.2,60.027269,30.217808
657,"ул. севастьянова, 4 литер а",1954,200,9,8,13495.2,59.877619,30.327501
658,"пр-кт луначарского, 68 корпус 2 литер а",1974,208,4,9,9669.52,60.039598,30.353373
659,"ул. воронежская, 122 литер а",1900,10,1,5,963.37,59.908732,30.343096
660,"пр-кт лиговский, 44 литер а",1910,79,10,8,9193.6,59.926156,30.358933
661,"пр-кт лермонтовский, 4 литер а",1841,15,3,3,1082.7,59.92424,30.291515
662,"пр-кт невский, 140 литер а",1917,30,8,7,3151.81,59.929853,30.369012
663,"ул. народная, 47 корпус 3 литер а",1958,4,2,2,206.02,59.880726,30.476514
664,"пр-кт лермонтовский, 55 литер а",1877,43,7,4,3142.39,59.91097,30.296887
665,"пр-кт рыбацкий, 7 литер а",1924,140,1,1,7868.6,59.844108,30.488938
666,"ул. дыбенко, 12 корпус 1 литер ж",1976,159,4,9,8767.13,59.902876,30.464171
667,"пр-кт богатырский, 24 корпус 1 литер а",2008,209,3,15,12404.3,60.001077,30.249788
668,"ул. демьяна бедного, 10 корпус 2 литер а",1973,134,9,5,6286.74,60.037683,30.381023
669,"пр-кт энергетиков, 74 литер а",1969,155,1,13,6429.2,59.973311,30.434904
670,"ул. солдата корзуна, 5 корпус 3 литер а",1968,118,6,5,5338.38,59.830196,30.216721
671,"пр-кт энгельса, 134 корпус 1 литер а",1999,165,2,16,12729.71,60.048013,30.330187
672,"ул. киевская, 18 литер а",1917,3,3,3,1371.7,59.903656,30.326738
673,"ул. радищева, 8 литер а",1846,12,2,6,1147.7,59.936918,30.362302
674,"ул. кораблестроителей, 19 корпус 2 литер а",1972,216,3,12,10717.05,59.943773,30.217565
675,"пр-кт тореза, 15 литер м",1961,75,4,5,4825.09,60.002108,30.362625
676,"ул. гаванская, 30 литер а",1911,19,1,7,1083.7,59.934939,30.238173
677,"ул. хасанская, 10 корпус 2 литер а",2009,232,4,17,13015.4,59.938004,30.482802
678,"пр-кт греческий, 17 литер а",1903,18,4,7,1763.2,59.936066,30.367674
679,"пр-кт малый в.о., 6 литер а",1894,12,4,3,927.3,59.948005,30.278507
680,"пр-кт тореза, 102 литер а",1965,44,1,10,1980.5,60.018808,30.330609
681,"пр-кт энгельса, 137 литер а",1976,66,2,10,4254.1,60.050736,30.334355
682,"ул. наличная, 40 корпус 2 литер а",1974,166,2,12,9225.9,59.950965,30.230564
683,"пр-кт нарвский, 9 литер а",1903,149,2,6,4084.9,59.905326,30.272542
684,"ул. алтайская, 21 литер а",1959,110,6,5,4362.61,59.84885,30.327699
685,"ул. костюшко, 42 литер а",1964,51,5,5,2443.02,59.846644,30.30454
686,"ул. ольги форш, 7 корпус 2 литер а",1980,28,1,15,5611.91,60.037405,30.391111
687,"пр-кт каменноостровский, 45 литер г",1903,3,1,2,213.8,59.969047,30.309185
688,"ул. софьи ковалевской, 4 литер а",1972,268,5,9,12005.3,60.011986,30.409544
689,"ул. коммуны, 44 корпус 1 литер а",1981,402,11,9,22158.6,59.955674,30.494417
690,"пр-кт большой п.с., 71 литер а",1916,23,2,4,1384.7,59.964593,30.310559
691,"ул. кораблестроителей, 32 корпус 3 литер а",2005,398,10,16,28846.8,59.953358,30.214709
692,"ул. червонного казачества, 16 литер а",1961,70,7,5,3158.9,59.86532,30.270512
693,"пр-кт стачек, 220 корпус 2 литер а",1967,50,5,5,2458.56,59.845464,30.222776
694,"пр-кт английский, 26 литер а",1883,40,5,5,4876.28,59.92446,30.284247
695,"пр-кт московский, 202 корпус 5 литер а",1954,45,3,5,2704.0,59.859072,30.323091
696,"пр-кт ириновский, 41 корпус 2 литер а",1952,18,3,3,1026.3,59.960629,30.487779
697,"ул. софийская, 39 корпус 2 литер а",1966,100,5,5,4493.5,59.873202,30.401145
698,"ул. пестеля, 9 литер в",1867,23,4,4,2198.0,59.942268,30.341937
699,"ул. школьная, 76 литер а",1971,60,3,5,2549.3,59.987019,30.257846
700,"ул. вертолетная, 13 корпус 2 литер а",1985,36,2,5,1886.9,59.820105,30.28467
701,"пр-кт кима, 13 литер а",1958,75,5,5,4666.3,59.954029,30.244335
702,"ул. ковалевская, 12 корпус 2 литер а",1983,71,1,9,3230.6,59.97753,30.508009
703,"ул. руднева, 9 корпус 3 литер а",2008,191,1,25,11686.2,60.042141,30.363838
704,"ул. беломорская, 36 литер а",1957,8,2,2,444.5,59.977728,30.515591
705,"ул. зои космодемьянской, 21 литер а",1950,2,1,2,577.82,59.892879,30.263281
706,"ул. подводника кузьмина, 22 литер а",1962,50,5,5,2419.8,59.847033,30.261772
707,"пр-кт литейный, 34 литер б",1840,26,2,5,2299.0,59.939906,30.348711
708,"ул. дибуновская, 43 литер а",1964,60,4,5,2468.4,59.985858,30.265724
709,"пр-кт кондратьевский, 77 корпус 3 литер а",1968,134,9,5,6246.03,59.97939,30.399025
710,"альпийский пер., 37 корпус 1 литер а",2000,75,2,10,6352.0,59.853514,30.389386
711,"ул. караваевская, 37 литер а",1961,40,3,4,1661.3,59.829984,30.513947
712,"пр-кт металлистов, 110 литер а",1963,80,5,5,3490.47,59.970164,30.402124
713,"пр-кт дунайский, 14 корпус 1 литер а",2015,2067,13,26,89229.0,59.831955,30.333457
714,"придорожная аллея, 3 литер а",1976,251,7,9,13765.17,60.058466,30.345198
715,"саперный пер., 10 литер а",1836,45,4,6,3195.3,59.941141,30.358215
716,"ул. бадаева, 3 корпус 1 литер а",1994,239,4,12,14813.6,59.917939,30.454325
717,"ул. косинова, 14 корпус 1 литер а",1929,56,7,4,3709.2,59.896183,30.273009
718,"ул. белградская, 28 корпус 3 литер а",1964,85,5,5,4022.26,59.858304,30.366075
719,"пр-кт маршала блюхера, 50 литер а",1963,224,8,7,10101.6,59.976089,30.429092
720,"пр-кт среднегаванский, 7/8 литер а",1901,44,4,5,2838.49,59.930796,30.245207
721,"яковлевский пер., 6 литер а",1928,108,9,7,8235.0,59.874341,30.32363
722,"ул. гончарная, 18 литер а",1871,8,2,3,598.4,59.928934,30.367369
723,"ул. днепропетровская, 41 литер б",1902,8,1,4,370.93,59.91627,30.360541
724,"ул. матроса железняка, 55 литер а",1962,99,5,5,4081.9,59.999692,30.318626
725,"ульяны громовой пер., 8 литер б",1917,33,7,6,3028.7,59.934312,30.362473
726,"ул. марата, 78 литер е",1917,6,2,2,388.9,59.919757,30.342548
727,"ул. ушинского, 37 корпус 1 литер а",1977,110,1,17,5587.6,60.041611,30.415824
728,"11-я в.о. линия, 26 литер е",2013,38,3,7,2597.7,59.94028,30.274591
729,"ул. маршала новикова, 11 литер а",1986,71,2,9,4160.1,60.014697,30.271348
730,"ул. софийская, 34 корпус 1 литер а",1966,45,1,9,1985.35,59.873324,30.406778
731,"ул. промышленная, 12 литер а",1947,4,1,2,561.39,59.898593,30.270674
732,"пр-кт чкаловский, 56 литер б",1912,30,1,6,1570.8,59.96825,30.302061
733,"пр-кт средний в.о., 56 литер а",1909,10,2,6,1823.1,59.940163,30.269066
734,"ул. седова, 43 литер а",1951,3,2,3,925.0,59.886668,30.422354
735,"ул. брянцева, 14 литер а",1970,134,9,5,6323.02,60.036937,30.401855
736,"ул. 6-я советская, 6 литер а",1885,3,1,3,151.0,59.936115,30.369839
737,"ул. доблести, 17 корпус 2 литер а",2009,279,6,8,18165.8,59.860287,30.173548
738,"ул. новостроек, 31 литер а",1959,54,3,5,3189.92,59.872995,30.271698
739,"никольский пер., 4 литер а",1823,30,6,7,3117.6,59.920875,30.304334
740,"пр-кт художников, 41 литер а",1974,484,13,9,25250.25,60.05216,30.359724
741,"ул. марата, 30 литер а",1916,23,4,6,3734.56,59.926381,30.352879
742,"ул. малая посадская, 8 литер а",1955,20,1,7,1601.7,59.957967,30.321321
743,"ул. дибуновская, 21 корпус 2 литер а",1950,8,1,2,637.7,59.986146,30.276064
744,"ул. кирочная, 22 литер а",1910,30,6,5,5357.0,59.944174,30.356688
745,"ул. верности, 38 корпус 3 литер а",1966,91,6,5,2691.5,60.002445,30.425301
746,"ул. шотмана, 10 литер б",1969,134,9,5,6385.62,59.901865,30.478284
747,"ул. тельмана, 54 литер ю",1969,216,6,9,11171.17,59.893647,30.487788
748,"ул. большая пушкарская, 50 литер в",1910,20,2,6,1566.9,59.962534,30.308547
749,"ул. ленина, 40 литер а",1901,15,3,5,1155.11,59.964192,30.298863
750,"новаторов б-р, 84 корпус 2 литер а",1976,251,7,9,12578.4,59.840772,30.26417
751,"ул. орджоникидзе, 9 литер а",1961,80,4,5,3461.4,59.84358,30.329028
752,"ул. 3-я советская, 22 литер ж",1895,14,1,5,1007.2,59.932486,30.369677
753,"поликарпова аллея, 10 корпус 3 литер а",2003,217,5,11,6395.4,60.006512,30.285568
754,"ул. седова, 164 литер ж",1962,90,6,5,4140.4,59.862316,30.449097
755,"пр-кт невский, 102 литер а",1877,7,1,5,830.0,59.931936,30.35622
756,"ул. краснопутиловская, 28/20 литер а",1959,91,5,5,5508.69,59.870127,30.270863
757,"пр-кт малый п.с., 66/32 литер а",1907,55,3,6,3285.5,59.963187,30.301145
758,"ул. лени голикова, 15 литер а",1970,45,1,9,1987.2,59.845315,30.227689
759,"пр-кт среднегаванский, 2/20 литер б",1961,40,2,5,1592.04,59.930931,30.248575
760,"пр-кт литейный, 11 литер а",1873,95,6,5,7100.0,59.945125,30.348342
761,"ул. белы куна, 18 корпус 1 литер а",1971,45,1,9,1973.3,59.874431,30.383969
762,"зоологический пер., 1-3 литер а",1902,88,6,5,5530.1,59.948992,30.304495
763,"ул. большая московская, 11 литер а",1844,24,3,5,1746.4,59.92575,30.346105
764,"пр-кт московский, 173 литер а",1951,101,6,6,8400.01,59.861123,30.319416
765,"ул. караваевская, 32 корпус 1 литер а",1987,120,2,13,11889.41,59.831621,30.511557
766,"ул. софийская, 30 корпус 2 литер а",1989,156,3,14,9610.8,59.876427,30.40658
767,"ул. гороховая, 51 литер а",1806,33,6,5,2786.1,59.927026,30.323818
768,"ул. фарфоровская, 18 литер а",1930,26,4,4,1772.06,59.879335,30.434607
769,"ул. народная, 84 литер е",1962,90,6,5,4128.1,59.886063,30.483476
770,"пирогова пер., 21 литер г",1857,6,1,3,360.9,59.929123,30.300471
771,"пр-кт гражданский, 125 корпус 2 литер а",1971,90,6,5,4313.64,60.037059,30.426289
772,"ул. пограничника гарькавого, 7 корпус 2 литер а",1953,11,2,3,891.0,59.8424,30.145952
773,"ул. большая конюшенная, 7 литер а",1823,3,1,3,223.7,59.940001,30.323719
774,"ул. красного курсанта, 25 литер а",1917,26,5,6,3351.09,59.959661,30.281687
775,"ул. боровая, 8 литер з",1856,9,1,4,741.8,59.921719,30.348531
776,"ул. маринеско, 5 литер а",1953,58,2,6,4054.71,59.868781,30.265419
777,"пр-кт славы, 16 литер а",1968,303,6,9,13954.0,59.857206,30.382074
778,"ул. тюшина, 3 литер а",1882,13,2,4,1036.61,59.916974,30.350175
779,"пр-кт маршала жукова, 66 корпус 1 литер а",1969,231,4,9,11260.39,59.835419,30.199402
780,"пр-кт большой в.о., 76 литер б",1952,77,6,5,5478.27,59.930169,30.255609
781,"сиреневый б-р, 4 корпус 2 литер х",1975,251,7,9,12903.24,60.055942,30.350965
782,"ул. кирочная, 25 литер а",1798,24,3,6,2218.1,59.943679,30.36258
783,"пр-кт рыбацкий, 35 литер а",1990,60,1,16,3104.8,59.839669,30.508108
784,"петроградская наб., 26-28 литер ч",1916,13,3,5,1350.29,59.961269,30.334436
785,"ул. школьная, 5 литер а",1959,55,4,5,3408.4,59.989072,30.296923
786,"ул. орджоникидзе, 32 литер а",1961,100,5,5,4414.3,59.846011,30.333322
787,"ул. авиационная, 22 литер а",1966,80,4,5,3050.5,59.854156,30.326109
788,"ул. большая зеленина, 15 литер а",1869,30,3,5,2654.64,59.961926,30.291389
789,"пр-кт ярославский, 67 литер а",2000,116,2,11,10896.0,60.021843,30.318078
790,"пр-кт товарищеский, 12 литер а",1975,97,1,14,4583.84,59.917858,30.483476
791,"ул. садовая, 127 литер а",1879,20,1,5,1446.74,59.917312,30.283286
792,"ул. седова, 23 литер б",1964,64,4,5,2748.59,59.891909,30.415527
793,"канонерский остров, 16 литер а",1956,78,7,4,4345.79,59.900601,30.218365
794,"новаторов б-р, 73 литер а",1967,51,1,9,1792.01,59.842296,30.252456
795,"ул. солдата корзуна, 19 литер а",1968,80,4,5,3533.39,59.826243,30.221258
796,"ул. типанова, 12 литер а",1959,37,3,5,2072.51,59.851517,30.333008
797,"ул. автовская, 28/30 литер а",1960,100,5,5,4154.7,59.873875,30.274114
798,"ул. гаврская, 13 литер а",1953,15,2,3,1171.4,60.017396,30.330825
799,"ул. школьная, 50/13 литер а",1949,8,1,2,656.6,59.986736,30.271069
800,"ул. федосеенко, 27 литер а",1961,60,3,5,2588.0,59.974689,30.397273
801,"пр-кт ленинский, 69 корпус 1 литер а",1986,94,1,16,4673.5,59.858896,30.18325
802,"ул. пограничника гарькавого, 19 корпус 2 литер а",1951,9,1,3,566.3,59.839014,30.145772
803,"ул. краснопутиловская, 33 литер а",1960,50,5,5,2415.7,59.868306,30.270782
804,"ул. кавалергардская, 22 литер а",1908,16,3,6,1860.5,59.945779,30.382415
805,"новаторов б-р, 114 литер а",1959,21,2,3,1031.5,59.84126,30.248746
806,"реки мойки наб., 32 литер а",1861,28,3,6,2371.8,59.938437,30.320629
807,"пр-кт энергетиков, 24 литер а",1978,200,1,14,6410.1,59.953763,30.436054
808,"пр-кт костромской, 60 литер а",1960,60,3,5,2548.92,60.025489,30.312769
809,"ул. шелгунова, 24 литер м",1962,60,4,5,2694.49,59.86392,30.447876
810,"ул. плуталова, 22 литер а",1929,14,1,4,1236.7,59.965147,30.307244
811,"пр-кт стачек, 144 литер а",1917,6,3,3,4427.35,59.854693,30.248315
812,"ул. бассейная, 77 литер а",1963,118,6,5,3361.4,59.863658,30.344399
813,"пр-кт дачный, 29 корпус 3 литер а",1961,32,2,4,1266.8,59.837304,30.260182
814,"пр-кт маршала жукова, 48 корпус 2 литер а",2007,72,3,7,4956.6,59.84357,30.213307
815,"ш. капсюльное, 25 литер а",1932,2,2,1,476.6,59.979876,30.499618
816,"ул. 7-я советская, 8 литер а",1875,436,5,6,3298.2,59.936755,30.37089
817,"пр-кт каменноостровский, 29 литер а",1902,65,8,6,7153.1,59.964588,30.313164
818,"реки мойки наб., 104 литер а",1917,49,5,5,3260.85,59.92754,30.291901
819,"пр-кт гражданский, 73 литер а",1968,208,4,9,9637.02,60.015228,30.402744
820,"ул. гаккелевская, 22 корпус 1 литер а",2001,231,4,17,18943.2,60.00209,30.254109
821,"16-я в.о. линия, 47 литер а",1874,27,4,4,1768.9,59.940452,30.265113
822,"ул. федосеенко, 36 литер а",1961,60,3,5,2556.4,59.976053,30.395306
823,"реки фонтанки наб., 168 литер в",1907,17,1,4,357.7,59.914989,30.272201
824,"пр-кт витебский, 61 корпус 1 литер а",1965,139,7,5,6880.86,59.846513,30.364997
825,"ул. сантьяго-де-куба, 6 корпус 1 литер а",1977,215,6,9,11649.06,60.034996,30.353822
826,"ш. выборгское, 17 корпус 1 литер а",2011,569,3,26,33961.5,60.054558,30.310478
827,"ул. таллинская, 15 литер а",1959,60,3,5,2601.16,59.925002,30.417423
828,"ул. 9-я советская, 24 литер а",1886,11,1,4,845.9,59.936602,30.378023
829,"пр-кт стачек, 6 литер а",1926,12,3,3,881.91,59.898742,30.276127
830,"ш. выборгское, 5 корпус 2 литер а",1999,64,7,5,5747.0,60.04002,30.321078
831,"пр-кт светлановский, 62 корпус 1 литер а",1971,392,7,9,15107.8,60.038425,30.396734
832,"ш. фермское, 12 литер з",2014,78,1,14,5423.2,60.013654,30.310424
833,"пр-кт тореза, 77 корпус 1 строение 1",2019,205,14,7,25700.8,60.023488,30.327986
834,"ул. ткачей, 50 литер щ",1933,50,4,5,3273.73,59.891096,30.425624
835,"ул. школьная, 112 литер а",1989,191,6,10,1.0,59.991322,30.214323
836,"пр-кт 2-й муринский, 19 литер е",1958,54,3,5,3429.66,60.001419,30.33953
837,"пр-кт большой п.с., 67 литер а",1953,23,1,6,1672.9,59.963998,30.30958
838,"пр-кт тихорецкий, 7 корпус 6 литер а",1951,39,4,4,2385.18,60.013236,30.372785
839,"ул. 10-я советская, 26 литер а",1903,20,2,5,1378.7,59.935308,30.384589
840,"ул. верейская, 8 литер а",1899,23,3,7,2183.6,59.917213,30.32495
841,"ул. громова, 12 литер а",1965,171,5,7,7932.96,59.919847,30.416866
842,"пр-кт художников, 5 корпус 3 литер а",1977,144,2,12,7716.0,60.033477,30.347516
843,"ул. караваевская, 25 корпус 3 литер а",1962,64,4,4,2788.51,59.830481,30.508161
844,"пр-кт шуваловский, 88 корпус 1 литер а",2008,379,6,14,18205.6,59.996416,30.19376
845,"ул. авангардная, 27 литер а",1970,283,5,9,14646.0,59.834189,30.181839
846,"ул. бармалеева, 12 литер а",1901,8,1,5,546.2,59.964277,30.3056
847,"пр-кт авиаконструкторов, 18 корпус 3 литер а",1990,206,6,10,12067.4,60.018025,30.233313
848,"пр-кт большеохтинский, 12 литер а",1970,70,1,12,3496.21,59.953358,30.409482
849,"ул. планерная, 91 корпус 1 строение 1",2021,494,6,13,17029.8,60.031751,30.199958
850,"ш. петергофское, 3 корпус 4 литер а",1978,107,3,9,6088.6,59.847865,30.207603
851,"пр-кт товарищеский, 26 корпус 1 литер а",1979,110,1,16,5653.9,59.913162,30.48856
852,"пр-кт ударников, 46 литер а",1959,27,3,3,1411.5,59.955259,30.483745
853,"пр-кт дачный, 29 корпус 1 литер а",1961,40,2,5,1559.2,59.837906,30.261385
854,"ул. варшавская, 39 корпус 1 литер а",1962,100,5,5,4441.1,59.859632,30.312149
855,"ул. казанская, 20 литер а",1798,12,3,4,987.8,59.931287,30.32036
856,"ул. казанская, 50 литер б",1961,37,2,5,1438.7,59.928036,30.30914
857,"ул. народная, 88 литер а",1966,45,1,9,1976.06,59.884898,30.484275
858,"пр-кт новоизмайловский, 18 корпус 1 литер а",1961,39,2,5,1588.4,59.863364,30.307119
859,"реки фонтанки наб., 90 корпус 8 литер е",1803,8,2,3,1026.8,59.925295,30.330538
860,"ул. ярослава гашека, 15 литер а",1995,237,7,12,12249.7,59.83399,30.398369
861,"ул. парашютная, 4 корпус 1 литер а",1977,394,11,10,19755.12,60.013955,30.290374
862,"ул. будапештская, 60 литер а",1965,134,9,5,6041.8,59.853062,30.385182
863,"ул. галерная, 30 литер а",1828,22,3,3,1302.1,59.931932,30.290086
864,"пр-кт металлистов, 72 литер а",1961,100,5,5,4384.0,59.960877,30.422067
865,"пр-кт новочеркасский, 50 корпус 2 литер а",1959,80,4,5,3569.12,59.923586,30.42027
866,"9-я в.о. линия, 4 литер а",1874,17,2,4,1188.24,59.93662,30.282406
867,"пр-кт гражданский, 45 корпус 2 литер а",1958,12,2,3,442.55,60.013407,30.400867
868,"пирогова пер., 10 литер а",1883,17,2,6,1388.61,59.928929,30.303175
869,"ш. южное, 72 литер а",1962,60,3,5,2503.25,59.863193,30.412536
870,"ул. гороховая, 58 литер а",1777,38,4,6,2649.5,59.923572,30.329828
871,"27-я в.о. линия, 12 литер б",1902,19,1,5,1126.24,59.930349,30.256858
872,"ул. маршала захарова, 12 корпус 2 литер а",2009,525,12,14,32411.9,59.858272,30.161358
873,"ул. зайцева, 29 литер а",1960,40,2,5,1604.8,59.87631,30.272219
874,"пр-кт стачек, 85 корпус 1 литер а",1975,148,4,9,7644.19,59.861602,30.254486
875,"ул. червонного казачества, 36 литер а",1960,50,5,5,2433.4,59.865736,30.275264
876,"ул. александра матросова, 3 строение 1",2021,871,23,11,47383.2,59.978196,30.335164
877,"ул. антоновская, 9 литер а",1963,80,4,5,3557.78,59.972023,30.406688
878,"канала грибоедова наб., 124 литер б",1917,27,5,6,1915.89,59.920767,30.296177
879,"пр-кт большой в.о., 4/19 литер а",1893,12,3,4,973.78,59.940767,30.290113
880,"ул. блохина, 2/77 литер а",1911,52,7,5,8322.76,59.950443,30.305636
881,"ул. купчинская, 20 корпус 4 литер а",1974,179,5,10,9748.0,59.835632,30.39483
882,"ул. 7-я красноармейская, 3 литер а",1882,11,1,3,378.3,59.911823,30.317162
883,"ул. фарфоровская, 16 литер н",1929,40,5,5,2731.13,59.879809,30.435398
884,"ул. 2-я поперечная (ново-ковалево), 1 корпус 2 литер а",1955,8,2,2,375.2,59.976693,30.546124
885,"ул. дегтярная, 31 литер а",1911,38,4,6,3285.39,59.936417,30.376963
886,"ул. евдокима огнева, 8 корпус 1 литер к",1970,216,6,9,11186.1,59.897108,30.468285
887,"ул. лисичанская, 14 литер а",1958,60,4,5,3654.94,59.985953,30.312643
888,"ул. караваевская, 41 корпус 2 литер б",1972,100,5,5,4196.0,59.829084,30.515537
889,"пр-кт невский, 146 литер а",1934,183,11,5,11374.5,59.929078,30.370863
890,"ул. псковская, 30-32 литер а",1863,47,3,3,1417.01,59.918683,30.278822
891,"ул. 13-я красноармейская, 26 литер б",1877,4,1,4,315.18,59.914922,30.299061
892,"ул. беринга, 24 корпус 1 литер а",1962,100,5,5,4187.07,59.942444,30.239673
893,"ул. краснопутиловская, 40 литер а",1961,37,1,6,1280.7,59.867425,30.277016
894,"ул. стойкости, 13 корпус 2 литер а",1997,293,8,12,16777.6,59.82988,30.213586
895,"пр-кт приморский, 137 корпус 1 литер а",2007,1322,14,25,97614.0,59.983536,30.216146
896,"ул. коммуны, 50 литер а",2005,445,4,25,24663.3,59.959345,30.490177
897,"ул. цимбалина, 25 строение 1",2018,276,1,25,10837.6,59.884636,30.426684
898,"ул. капитанская, 5 литер б",1993,125,1,17,4025.76,59.956201,30.213685
899,"шувалово, ул. новоалександровская, 62 литер а",1955,4,2,2,1243.7,60.05233,30.289763
900,"поликарпова аллея, 1 литер а",1978,41,1,16,5650.74,60.007465,30.293725
901,"ул. 9-я советская, 32/26 литер а",1877,19,2,3,1390.0,59.936025,30.379586
902,"ул. михайлова, 3 литер а",1900,16,1,5,1115.0,59.953696,30.361116
903,"пр-кт суздальский, 107 литер а",1971,134,9,5,6328.68,60.042734,30.421806
904,"ул. верности, 10 корпус 4 литер а",1966,286,4,9,10747.5,60.007992,30.409059
905,"пр-кт товарищеский, 14 литер а",1972,251,7,10,13512.9,59.917953,30.485946
906,"ул. матроса железняка, 39 литер а",1964,45,1,10,1968.0,59.997383,30.310182
907,"ул. академика павлова, 6 корпус 1 строение 1",2017,119,3,10,6541.9,59.97685,30.316012
908,"ул. псковская, 8 литер а",1913,57,2,7,3319.21,59.920627,30.283439
909,"ул. краснопутиловская, 77 литер а",1965,53,1,9,1904.74,59.855891,30.296581
910,"ул. миллионная, 38 литер а",1916,22,3,4,2008.0,59.940632,30.318042
911,"ул. ситцевая, 17 корпус 2 литер а",1991,209,5,10,10909.1,60.000209,30.236727
912,"пр-кт шуваловский, 37 корпус 1 литер а",2012,1070,7,24,52950.5,60.032456,30.246482
913,"ул. орджоникидзе, 23 литер а",1961,56,3,5,2360.9,59.843548,30.333852
914,"15-я в.о. линия, 28 литер г",1899,7,1,5,710.67,59.938608,30.268751
915,"канала грибоедова наб., 79/23 литер а",1855,58,4,7,4445.9,59.92681,30.307684
916,"дегтярный пер., 28 литер б",1958,40,2,5,2387.55,59.940041,30.383907
917,"пр-кт королева, 49 литер а",1989,236,4,12,14591.0,60.024145,30.251522
918,"ул. краснопутиловская, 51 литер а",1961,36,1,6,1287.6,59.867502,30.274132
919,"ул. жуковского, 26 литер в",1864,18,2,5,742.0,59.936499,30.358969
920,"новаторов б-р, 20 литер а",1964,70,7,5,3148.2,59.848909,30.273351
921,"ул. орджоникидзе, 10 литер а",1959,60,3,5,2521.2,59.846048,30.325803
922,"ул. седова, 22 литер б",1950,13,4,2,694.34,59.895741,30.411377
923,"ул. шамшева, 15а литер а",1904,10,1,5,753.29,59.961305,30.300112
924,"ул. запорожская, 11 литер х",1961,40,2,5,1623.1,59.85252,30.473244
925,"ул. черняховского, 11 литер в",1900,23,1,5,1342.22,59.916293,30.356903
926,"ул. 2-я комсомольская, 45 литер а",1967,70,7,5,3176.0,59.830115,30.142197
927,"ул. варшавская, 27 корпус 2 литер а",1962,100,5,5,4506.4,59.863301,30.311188
928,"ул. ключевая, 31 литер а",1962,80,4,5,3593.32,59.97328,30.410479
929,"пр-кт витебский, 59 корпус 1 литер а",2012,100,1,9,4085.2,59.847092,30.363784
930,"новосмоленская наб., 8 литер а",1993,185,4,22,10117.2,59.948487,30.219641
931,"гривцова пер., 3 литер а",1834,55,4,6,4102.22,59.930687,30.313272
932,"пр-кт каменноостровский, 56 корпус 2 литер а",2007,24,2,9,3878.8,59.972091,30.304217
933,"7-я в.о. линия, 38 литер б",1887,21,1,6,1204.4,59.941344,30.279217
934,"ш. петергофское, 72 корпус 6 строение 1",2018,105,3,10,5707.2,59.844339,30.115373
935,"пр-кт ударников, 18 литер а",1980,28,2,15,5607.4,59.949839,30.464099
936,"ул. большая пушкарская, 62 литер а",1900,7,2,4,317.2,59.964016,30.311664
937,"пр-кт московский, 66 литер а",1917,32,2,5,1893.2,59.907541,30.319407
938,"ул. гаванская, 47 литер а",1904,77,4,5,2226.84,59.938045,30.238505
939,"ул. беломорская, 32 литер а",1974,84,6,5,4078.6,59.976778,30.513165
940,"ул. гаванская, 47 литер в",1904,11,2,4,1062.33,59.938743,30.238694
941,"ул. опочинина, 13 литер а",1932,55,5,5,3394.79,59.929222,30.240239
942,"ул. русановская, 17 корпус 2 литер а",2013,405,4,23,21202.4,59.863924,30.512015
943,"пр-кт ярославский, 38 литер з",1960,60,3,5,2536.2,60.019307,30.318329
944,"обводного канала наб., 147-149 литер н",1863,10,2,4,653.4,59.909553,30.312643
945,"пр-кт ударников, 42 литер а",1982,263,6,9,13114.0,59.954205,30.48185
946,"14-я в.о. линия, 25-27 литер з",1876,2,1,2,174.1,59.938153,30.272066
947,"ул. подрезова, 26б литер б",1911,15,1,5,1600.5,59.965894,30.299869
948,"9-я в.о. линия, 30 литер а",1917,5,2,6,1152.2,59.940704,30.277555
949,"ул. большая московская, 1-3 литер а",1858,67,13,7,8373.7,59.925588,30.345863
950,"ул. ткачей, 17 литер а",1958,2,4,5,3593.14,59.89181,30.418833
951,"ул. новгородская, 18 литер б",1902,7,2,5,1157.8,59.937062,30.385919
952,"пр-кт кима, 7/19 литер а",1925,89,10,5,5152.59,59.952132,30.24615
953,"ул. 6-я жерновская, 17 строение 1",2017,80,1,10,4353.2,59.964309,30.493402
954,"ул. курляндская, 22-24 литер л",1912,57,1,6,1259.6,59.911241,30.283313
955,"пр-кт коломяжский, 5 корпус 3 строение 1",2021,652,4,22,17067.3,59.998058,30.306849
956,"ул. садовая, 83 литер б",1863,12,1,6,1036.2,59.919685,30.292647
957,"пр-кт большевиков, 8 корпус 1 литер б",1989,56,1,14,3095.5,59.914277,30.476756
958,"пр-кт солидарности, 12 корпус 2 литер з",1975,108,3,9,5806.4,59.920609,30.496295
959,"ул. стойкости, 5 литер а",1973,72,1,12,2756.8,59.829088,30.218509
960,"пр-кт юрия гагарина, 26 корпус 6 литер а",1963,118,6,5,5376.74,59.85524,30.34262
961,"выборгская наб., 59 корпус 1 литер а",1914,14,4,4,1413.49,59.979196,30.324699
962,"пр-кт народного ополчения, 127 литер а",1967,54,1,9,1932.05,59.835681,30.263308
963,"ул. кораблестроителей, 30 литер а",2004,794,18,18,72511.2,59.951912,30.216667
964,"пр-кт светлановский, 113 корпус 1 литер а",1973,97,1,15,4659.4,60.04197,30.402654
965,"ул. караваевская, 29 литер а",1961,48,3,4,2028.05,59.830825,30.510605
966,"адмирала лазарева наб., 20 литер б",1961,50,3,5,3270.75,59.965025,30.27892
967,"2-я в.о. линия, 55 литер а",1917,16,2,4,1398.0,59.94778,30.280367
968,"1-я в.о. линия, 36 литер а",1904,53,6,5,4172.8,59.944102,30.287068
969,"ул. караваевская, 26 корпус 1 литер а",2000,204,5,12,12949.3,59.832738,30.50826
970,"ул. парашютная, 19 корпус 1 литер а",2000,74,4,5,5157.0,60.018479,30.273791
971,"ул. ивана черных, 15 литер а",1962,60,5,5,2527.68,59.900213,30.281202
972,"октябрьская наб., 66 литер б",1973,96,1,19,4125.74,59.879475,30.455358
973,"ул. некрасова, 8 литер а",1859,8,4,5,2302.88,59.939185,30.351352
974,"ул. партизана германа, 32 корпус 2 литер а",1954,4,1,3,1337.3,59.826085,30.178264
975,"ул. курляндская, 22-24 литер ж",1905,61,1,6,1407.8,59.911426,30.283322
976,"ул. корнея чуковского, 8 литер а",2015,85,1,18,6692.5,60.030443,30.455188
977,"ул. бабушкина, 22 литер а",1959,4,5,5,4791.39,59.891584,30.429972
978,"ул. орбели, 27 корпус 4 литер г",1962,55,4,5,3443.29,60.006129,30.344012
979,"ул. севастопольская, 38 литер а",1950,10,2,2,520.5,59.89018,30.266101
980,"пр-кт северный, 63 корпус 1 литер а",2003,243,3,16,14351.6,60.023007,30.400076
981,"пр-кт невский, 150 литер к",1929,24,4,4,1564.2,59.928654,30.3738
982,"ул. варшавская, 104 литер а",1958,64,5,5,4101.08,59.848891,30.318105
983,"пр-кт малый п.с., 22 литер а",1938,18,2,5,1265.4,59.956012,30.292844
984,"ул. черкасова, 17 литер а",1970,134,9,5,6282.7,60.028204,30.426208
985,"климов пер., 1/6 литер а",1884,18,2,3,1481.36,59.91812,30.294111
986,"3-й рабфаковский пер., 10 корпус 1 литер м",1961,90,6,5,4147.0,59.852488,30.468977
987,"пр-кт ленинский, 154 литер а",1965,53,1,9,1838.09,59.852461,30.297147
988,"альпийский пер., 11 корпус 1 литер а",1965,84,6,5,4003.01,59.850961,30.374079
989,"пр-кт северный, 89 корпус 4 литер а",1966,100,5,5,4530.28,60.015192,30.426226
990,"ул. лиственная, 3 литер а",1961,8,1,2,324.01,60.025089,30.32778
991,"ул. блохина, 29 литер б",1907,20,1,5,1178.0,59.952858,30.294039
992,"ул. миллионная, 25 литер а",1875,74,8,8,8562.21,59.94275,30.321222
993,"антоненко пер., 3 литер а",1815,33,5,5,2382.31,59.930394,30.310918
994,"9-я в.о. линия, 18 литер а",1906,17,5,6,1730.13,59.939338,30.279136
995,"ул. салова, 30 литер а",1950,19,2,5,1916.9,59.896738,30.374986
996,"ул. съезжинская, 16 литер б",1907,17,1,5,1343.94,59.954367,30.299141
997,"ул. костюшко, 7 литер а",1967,70,7,5,3179.54,59.845541,30.301765
998,"новаторов б-р, 86 литер а",1965,70,7,5,3187.6,59.840754,30.262787
999,"ул. чапаева, 21 литер а",1871,33,3,5,1768.37,59.963656,30.330942
